_id,START_TIME,START_LAT,START_LNG,END_TIME,END_LAT,END_LNG,USER_ID,NAME,ADDRESS,TYPE
17985580-66cb-487d-865a-2ed2d3db0409,2025-04-08T06:32:00,40.79229418446716,-73.93489022711518,2025-04-08 08:00:00,40.79259266335973,-73.93570679997586,user_8932,Thomas Jefferson Park,2158 1 AVENUE,Community Park
c735de54-eee9-473b-9cd5-a2fd4276fcf9,2025-04-08T07:17:00,40.80390727753462,-73.94591164848372,2025-04-08 07:56:00,40.80314062940808,-73.94509063857626,user_4150,Marcus Garvey Park,18 MT MORRIS PARK WEST,Community Park
3dbe26c0-5c99-4131-8efd-81aace4f458b,2025-04-08T09:13:00,40.80159984818441,-73.96812312780794,2025-04-08 11:10:00,40.80069054180644,-73.96748972129623,user_5038,Straus Park,2761 BROADWAY,Triangle/Plaza
dcca9148-8935-4c99-a1df-6800fc02b6f6,2025-04-08T10:08:00,40.7733787371098,-73.98194017160988,2025-04-08 11:07:00,40.77245316136625,-73.98117091206244,user_5571,Richard Tucker Park,134 COLUMBUS AVENUE,Triangle/Plaza
d4945b16-441e-45fa-b42a-547326cc5e1f,2025-04-08T10:36:00,40.717438173965085,-74.0108808468182,2025-04-08 11:39:00,40.71843002871459,-74.01001990296395,user_5890,Washington Market Park,304 GREENWICH STREET,Neighborhood Park
aa09c1ae-0354-4662-a642-104c6ef83eec,2025-04-08T09:15:00,40.82134467240917,-73.94139664225519,2025-04-08 11:05:00,40.820576913370616,-73.94156684844354,user_4684,Renaissance Playground,223 WEST 143 STREET,Jointly Operated Playground
c6a4cd05-6274-4aa1-ba83-7abf33e67dc9,2025-04-08T09:51:00,40.78926268735445,-73.96866126614377,2025-04-08 11:36:00,40.78873228741931,-73.96886835821283,user_5876,Sol Bloom Playground,59 WEST 91 STREET,Jointly Operated Playground
502f852e-82b3-40bb-8025-3ea5ffd6387e,2025-04-08T09:12:00,40.802518213650266,-73.94122413701776,2025-04-08 11:06:00,40.80259330686203,-73.9414762140424,user_5735,Eugene McCabe Field,1839 MADISON AVENUE,Jointly Operated Playground
01f8814c-2c16-430b-ae8f-dc663476f327,2025-04-08T06:06:00,40.7159267460159,-74.0017068596393,2025-04-08 07:01:00,40.7157040376782,-74.00193452740321,user_4396,Collect Pond Park,93 CENTRE STREET,Triangle/Plaza
2f80543e-9988-4da2-aad5-568e8886902b,2025-04-08T09:22:00,40.79744009784218,-73.93497779661237,2025-04-08 10:46:00,40.79718212087316,-73.93581458573794,user_9011,P.S. 155 Playground,305 EAST 117 STREET,Jointly Operated Playground
f6361a46-d798-48c1-b300-2f38d3b61114,2025-04-08T09:26:00,40.799370247356926,-73.96611214505947,2025-04-08 10:10:00,40.80026900889375,-73.96666306754226,user_6194,Bloomingdale Playground,905 AMSTERDAM AVENUE,Jointly Operated Playground
245b1dca-636d-4cb7-a7bd-97a67a7fc482,2025-04-08T09:55:00,40.73882103763286,-74.00430982349425,2025-04-08 11:34:00,40.73921400561613,-74.00467245374335,user_8861,Corporal John A. Seravalli Playground,638 HUDSON STREET,Neighborhood Park
ec4db911-49d1-4dd0-811c-edb95bc9affd,2025-04-08T06:43:00,40.78523527423483,-73.95055588355632,2025-04-08 07:41:00,40.78531565922569,-73.95135771730753,user_6714,Samuel Seabury Playground,142 EAST 96 STREET,Jointly Operated Playground
2f1e67fa-9022-4dc7-b121-5e27a3f29b49,2025-04-08T06:03:00,40.714054763197815,-73.98348653140829,2025-04-08 07:55:00,40.71422944388891,-73.98305712286324,user_5480,Sol Lain Plgd,271 HENRY STREET,Jointly Operated Playground
d5594901-8575-4647-8cae-5e7540f194a3,2025-04-08T09:46:00,40.83164295123977,-73.9413009606635,2025-04-08 10:35:00,40.83209614954089,-73.94163037995166,user_5715,Wright Brothers Playground,1921 AMSTERDAM AVENUE,Jointly Operated Playground
01df9d2a-1533-48d7-a440-104c8265825f,2025-04-08T08:51:00,40.8275490579134,-73.93920001356994,2025-04-08 09:55:00,40.8283198854812,-73.93990791495631,user_2996,Bradhurst Ave Garden,,Garden
9c92ca92-4177-43b6-a261-b8672d2dc87d,2025-04-08T06:15:00,40.79331732385125,-73.94319197216295,2025-04-08 07:03:00,40.79362716764624,-73.94411536578072,user_9899,Poor Richard's Playground,2095 2 AVENUE,Jointly Operated Playground
da921a32-49bc-4e47-bd52-21fc7efffe39,2025-04-08T07:12:00,40.7137899414134,-73.98195870073373,2025-04-08 07:51:00,40.71445732757999,-73.9811239083905,user_7220,Henry M. Jackson Playground,1 JACKSON STREET,Jointly Operated Playground
6218187e-0d17-4d5e-954a-9c0ec94244f5,2025-04-08T10:28:00,40.82313184090184,-73.9507062319248,2025-04-08 11:05:00,40.82336314532994,-73.9507613220587,user_7464,Alexander Hamilton Playground,66 HAMILTON PLACE,Playground
78e6a1c2-969e-4b19-85eb-47d945a2da60,2025-04-08T07:27:00,40.796493363504176,-73.94724522871344,2025-04-08 08:18:00,40.7973714696356,-73.94658300774158,user_6654,Pueblo Unido Garden,1659 MADISON AVENUE,Garden
9012f7de-9ff5-4208-968e-3fe6c9024a16,2025-04-08T07:17:00,40.79923127148561,-73.94416361727798,2025-04-08 08:26:00,40.79879075176578,-73.94364593496844,user_3399,La Cuevita Garden,71 EAST 115 STREET,Garden
b0386255-3b66-4cfc-ac47-bec65bd3d63d,2025-04-08T09:15:00,40.76900910002715,-73.94903734207423,2025-04-08 11:01:00,40.76938966135464,-73.94909912181993,user_5758,John Jay Park,76-01 FDR DRIVE,Community Park
31a3fbd2-1a33-47a5-b4fd-76d507679f39,2025-04-08T06:28:00,40.82760315030146,-73.95194430353968,2025-04-08 08:10:00,40.82703768967085,-73.95171360702535,user_1689,Riverside Park,675 RIVERSIDE DRIVE,Neighborhood Park
be253549-7654-4f5d-929b-32a228f26ed5,2025-04-08T10:06:00,40.79426108391677,-73.93432908751741,2025-04-08 11:12:00,40.79415047563633,-73.9335173725392,user_5712,Pleasant Park Garden,437 EAST 114 STREET,Garden
a3a7e7e6-616f-4607-abb9-02c8b7bd0dbe,2025-04-08T06:41:00,40.72966769676668,-73.97245221623079,2025-04-08 08:07:00,40.72913992204314,-73.97341420846097,user_2294,Murphys Brothers Playground,292 AVENUE C,Playground
fe50e8e1-09cd-4b4d-8ada-1df88238e346,2025-04-08T10:53:00,40.83968939477669,-73.93998721317689,2025-04-08 11:38:00,40.8394147668542,-73.94055590368795,user_6674,Mitchell Square,3962 BROADWAY,Triangle/Plaza
a8ac8554-fd0c-453a-abcd-d5facd431740,2025-04-08T06:05:00,40.7796720338481,-73.97361916110918,2025-04-08 07:34:00,40.78063388928475,-73.97432012187126,user_8247,Theodore Roosevelt Park,200 CENTRAL PARK WEST,Buildings/Institutions
515a7938-921e-46ef-a7ed-68f9d4dbd37d,2025-04-08T07:10:00,40.76474824380863,-73.95841958165919,2025-04-08 09:08:00,40.76448291372563,-73.9575391297605,user_5201,St Catherine's Park,1245 EAST 67 STREET,Neighborhood Park
705ae68e-2859-48a4-bdb3-52493b1e17df,2025-04-08T09:31:00,40.83415018948959,-73.93831667659839,2025-04-08 10:39:00,40.83495358191444,-73.93809891640016,user_8849,Roger Morris Park,65 JUMEL TERRACE,Historic House Park
2d244b5c-75f0-499f-b179-2ef9d9d53c85,2025-04-08T09:13:00,40.713605316732725,-73.99442125447004,2025-04-08 11:12:00,40.71389497035224,-73.99457474495215,user_4505,Sophie Irene Loeb,10 MARKET STREET,Playground
18cdd054-df09-4e95-a954-77ba8a385428,2025-04-08T09:57:00,40.74134480344176,-74.00197756530805,2025-04-08 11:18:00,40.7404659036201,-74.00142522004278,user_4310,Dr. Gertrude B. Kelly Playground,317 WEST 16 STREET,Neighborhood Park
01c65b28-3642-45ce-89ba-55291d7c5fb0,2025-04-08T06:10:00,40.71546863725982,-73.98121798902919,2025-04-08 07:14:00,40.71502040014154,-73.98174270857591,user_9824,Luther Gulick Playground,21 COLUMBIA STREET,Neighborhood Park
5ebc0c07-bb73-4ac7-be08-e12f24d04878,2025-04-08T09:00:00,40.77095008884092,-73.98867250775429,2025-04-08 10:34:00,40.77188650259279,-73.98942881106397,user_5442,Gertrude Ederle Recreation Center,533 WEST 59 STREET,Buildings/Institutions
270b941a-567a-47bf-845a-f32b7d8b116c,2025-04-08T09:16:00,40.752893898265086,-73.96978157624022,2025-04-08 10:55:00,40.75379191984161,-73.9703046972333,user_5450,Dag Hammarskjold Plaza,833 1 AVENUE,Triangle/Plaza
b1d3a864-5d5c-452a-aedf-e49fb1ada382,2025-04-08T09:18:00,40.79692280504317,-73.94157178085652,2025-04-08 10:51:00,40.79757118720703,-73.94129387739217,user_3249,James Weldon Johnson Playground,176 EAST 115 STREET,Jointly Operated Playground
6ad90d8e-3fb6-4e68-a4b8-8deea3134998,2025-04-08T09:44:00,40.81553449102845,-73.93732949281154,2025-04-08 11:10:00,40.81471783787609,-73.93708387167486,user_2789,William McCray Playground,53-41 WEST 138 STREET,Playground
2970173e-6852-4275-80ab-bb7102f2a869,2025-04-08T10:42:00,40.81328725935951,-73.95043743457018,2025-04-08 11:22:00,40.81271147099036,-73.95131182026816,user_4920,St Nicholas Park,48 ST NICHOLAS AVENUE,Neighborhood Park
af1e1379-a130-4f71-bb00-6c83c37a2dc0,2025-04-08T09:09:00,40.74458614458842,-73.973129156703,2025-04-08 10:55:00,40.744865130425474,-73.97245578126179,user_4972,St. Vartan Park,613 1 AVENUE,Neighborhood Park
fe4f963e-bf32-4a39-8113-9e6b867caf45,2025-04-08T07:18:00,40.72498231393124,-74.00263965850152,2025-04-08 07:53:00,40.72592450055537,-74.00264000005704,user_1831,Vesuvio Playground,85 THOMPSON STREET,Neighborhood Park
0164b911-aaec-47b4-9911-8f9e0fa9c4a7,2025-04-08T07:03:00,40.72386474148322,-73.98963948581685,2025-04-08 08:28:00,40.72296589850455,-73.98956737824822,user_9700,First Street Garden,48 EAST 1 STREET,Garden
56dce42b-35b7-4e78-b309-a81a513c2217,2025-04-08T10:47:00,40.80357443921366,-73.95803901771242,2025-04-08 11:58:00,40.803241457526525,-73.9577751078284,user_4697,Lafayette Square,351 WEST 114 STREET,Triangle/Plaza
41b12251-c8e3-41f5-9400-f56f931a54e3,2025-04-08T10:03:00,40.72518209047014,-73.9812564536158,2025-04-08 11:50:00,40.72615973227803,-73.98110635870074,user_4814,Tompkins Square Park,144 AVENUE A,Neighborhood Park
94718485-d85a-4eab-94ab-6cc53dfb1052,2025-04-08T08:03:00,40.77929293162686,-73.98134316753715,2025-04-08 09:05:00,40.77986688782681,-73.98090607888156,user_1860,Verdi Square,2098 BROADWAY,Triangle/Plaza
7cce738a-91c8-4634-9624-d642e0759b6f,2025-04-08T06:37:00,40.822688719300814,-73.93969486089213,2025-04-08 07:10:00,40.8220991304511,-73.94011231691658,user_2641,Bradhurst Urban Renewal Park,218-234 WEST 146 STREET,Neighborhood Park
8734094c-bfee-48a8-88cb-8268f7932df4,2025-04-08T09:32:00,40.75223498849442,-73.96492705722271,2025-04-08 10:13:00,40.75289462416885,-73.96592392855084,user_7771,MacArthur Playground,436 EAST 49 STREET,Playground
919320d7-184f-465c-b110-6514aa340ef9,2025-04-08T10:10:00,40.75630883112292,-73.96510179634521,2025-04-08 11:09:00,40.75641724669985,-73.96539616426595,user_6411,Constance Baker Motley Recreation Center,348 EAST 54 STREET,Buildings/Institutions
839acc08-f3d2-4d62-babc-8691f2e6eaa6,2025-04-08T06:32:00,40.74244069671796,-73.98901995926714,2025-04-08 08:28:00,40.74261346288512,-73.98887863183509,user_8739,Worth Square,952 BROADWAY,Triangle/Plaza
7757e88d-864b-484c-9217-f4d0190e7717,2025-04-08T06:54:00,40.80608522859763,-73.95115536768618,2025-04-08 08:37:00,40.80671133455987,-73.95178073986258,user_2647,P.S. 76 Garden,203 WEST 120 STREET,Garden
c0ed11e1-4cd8-40bd-a6a6-976539428496,2025-04-08T07:04:00,40.72844258818525,-73.97824962169392,2025-04-08 08:49:00,40.72790858554335,-73.97791319188808,user_3252,Yu Suen Garden,209 AVENUE B,Garden
2da6bec1-27d2-43b0-96be-9391bb343002,2025-04-08T10:04:00,40.84549904763569,-73.94059870081793,2025-04-08 10:36:00,40.8460477847913,-73.94055173170257,user_1084,J. Hood Wright Park,301 FT WASHINGTON AVENUE,Neighborhood Park
f7b8f9c8-7adf-4f73-a587-df036fab8339,2025-04-08T07:25:00,40.73013812355252,-74.00672402234832,2025-04-08 09:21:00,40.73071541106108,-74.00700281483292,user_3587,James J Walker Park,410 HUDSON STREET,Neighborhood Park
0a664b49-c16d-47d0-ae1a-743af7483b41,2025-04-08T06:56:00,40.7213664172341,-73.97820327222415,2025-04-08 08:00:00,40.72155838050445,-73.97729646486818,user_7666,Orchard Alley Garden,346 EAST 4 STREET,Garden
e2a57bb8-5d6c-413f-bf92-7e2c2f86d941,2025-04-08T10:15:00,40.72923342534131,-73.99143693293948,2025-04-08 11:58:00,40.72878797503326,-73.99134876901962,user_8793,The Public Theater,425 LAFAYETTE ST,Managed Sites
57ac451b-fa48-4102-9f99-97679a722444,2025-04-08T10:38:00,40.7485998418677,-73.96967801303215,2025-04-08 11:13:00,40.7495678981314,-73.96910518836046,user_8822,Robert Moses Playground,724 1 AVENUE,Playground
afb20727-2057-4929-946d-6d037bff1a0e,2025-04-08T06:39:00,40.73090253445682,-74.00092286126788,2025-04-08 07:31:00,40.73187758906555,-74.00090761609022,user_4267,West 4th Street Courts,320 6 AVENUE,Playground
f7745063-ad3a-4056-af7d-f8c7e5f2f2ed,2025-04-08T06:26:00,40.709863345652046,-73.99601102624779,2025-04-08 07:56:00,40.70994377656577,-73.9969703576352,user_5706,Tanahey Playground,312 WATER STREET,Neighborhood Park
1370dac1-ce9a-488c-848e-51b56bcbf931,2025-04-08T10:36:00,40.72149581326735,-73.9819962025476,2025-04-08 12:12:00,40.72209284091447,-73.98124953967056,user_6262,Peachtree Garden,238 EAST 2 STREET,Garden
23575b8d-1630-46a4-aefb-8c82810c3d99,2025-04-08T10:20:00,40.71998285531348,-73.99218978765998,2025-04-08 12:13:00,40.71920270800926,-73.99310271880965,user_5676,Sara D. Roosevelt Park,106 CHRYSTIE STREET,Neighborhood Park
f44f627c-3b46-4925-8a1b-e78797c09ed3,2025-04-08T08:13:00,40.75297102880166,-73.9834069537809,2025-04-08 09:39:00,40.75370392457867,-73.98363319113784,user_1969,Bryant Park,1060 6 Av,Neighborhood Park
075864aa-a461-41b4-9af6-4a4da1854d2f,2025-04-08T08:15:00,40.855866819878834,-73.92209574056815,2025-04-08 09:20:00,40.85513042633796,-73.92234913579395,user_2465,Sherman Creek,3703 HARLEM RIVER DRIVE,Neighborhood Park
5a8311dc-bb0c-462a-b5c1-5362c3a2363b,2025-04-08T08:25:00,40.73619466771923,-73.9810875609532,2025-04-08 09:18:00,40.73591115227767,-73.98059292777008,user_4804,Peter's Field,344 2 AVENUE,Jointly Operated Playground
bac53a4d-6624-4b54-844d-74b0a9863539,2025-04-08T07:42:00,40.740467092842415,-73.97742211525204,2025-04-08 09:26:00,40.74104395591132,-73.97770792749901,user_9767,Bellevue South Park,315 EAST 26 STREET,Neighborhood Park
40773baf-95c7-4d1c-83dd-1b259f751c26,2025-04-08T08:29:00,40.75960193452555,-73.95827002036043,2025-04-08 09:54:00,40.75977964036965,-73.95913490124495,user_1611,Twenty-Four Sycamores Park,501 EAST 60 STREET,Playground
8a8245f0-eb7b-4f54-a275-802eeb634636,2025-04-08T08:59:00,40.80676964129167,-73.94735171527196,2025-04-08 10:50:00,40.805801203458685,-73.94786946342319,user_3868,New 123rd St Block Association Garden,114 WEST 123 STREET,Garden
2fe4b68a-9a4a-4066-8761-c4e0f445c00c,2025-04-08T06:00:00,40.75272089523828,-73.96439338176133,2025-04-08 07:32:00,40.752251630254925,-73.9640791729613,user_7846,Peter Detmold Park,454 EAST 51 STREET,Neighborhood Park
43b28de0-b598-4f36-8b67-05573b45af7e,2025-04-08T09:39:00,40.77872759852255,-73.94363368593727,2025-04-08 10:20:00,40.777981115609975,-73.94442635820228,user_3880,Asphalt Green,1712 YORK AVENUE,Community Park
fe80e525-c68e-4a5b-8dbc-e9582a834653,2025-04-08T10:06:00,40.782529932284575,-73.94446793890685,2025-04-08 11:36:00,40.7823718533984,-73.94430413226374,user_1595,Stanley Isaacs Playground,1840-1860 1 AVENUE,Neighborhood Park
49a00335-b291-4535-8a79-7338b00ec5ad,2025-04-08T06:34:00,40.73545795259608,-73.98184991028882,2025-04-08 07:48:00,40.734685251209655,-73.98133655243593,user_7504,Augustus St. Gaudens Playground,328 2 AVENUE,Jointly Operated Playground
24cfda96-3878-4a52-92a7-28a99599d66b,2025-04-08T07:32:00,40.72808245525635,-73.97913710442276,2025-04-08 08:54:00,40.72720957133264,-73.97987028524304,user_9116,Children's Garden,194 AVENUE B,Garden
c2d032ed-831f-4f57-b762-ec88b887f9de,2025-04-08T08:08:00,40.7281198935243,-73.97937993443009,2025-04-08 09:20:00,40.72801644395284,-73.97967533633786,user_4052,Joseph C. Sauer Park,532 EAST 12 STREET,Neighborhood Park
476ed846-806d-440d-8b83-9f1eeb3a0c86,2025-04-08T08:56:00,40.73005920292031,-73.98785628567128,2025-04-08 10:07:00,40.72978328086794,-73.98817919115493,user_5742,Abe Lebewohl Triangle,,Triangle/Plaza
d796bbb8-2fa3-4941-90b3-a2bb4b22a153,2025-04-08T06:56:00,40.72705655464283,-74.00356750595179,2025-04-08 08:51:00,40.727243886678565,-74.00328191471938,user_1613,Charlton Plaza,201 6 AVENUE,Triangle/Plaza
d6de1c25-0450-4239-ab6f-b47487b7e5b0,2025-04-08T07:23:00,40.73069711194098,-74.00115974811168,2025-04-08 08:06:00,40.7306011227808,-74.00049898079814,user_1151,Minetta Playground,304 6 AVENUE,Playground
503fd43e-671e-4aeb-ab3d-b0477f2ab946,2025-04-08T08:10:00,40.73023996427886,-74.00154712711851,2025-04-08 09:00:00,40.7296830637917,-74.0011777619857,user_5888,Minetta Green,294 6 AVENUE,Triangle/Plaza
71c4eedd-ab63-4b48-b55b-126191a721eb,2025-04-08T09:53:00,40.72401752715714,-73.9904178720097,2025-04-08 11:05:00,40.7242477408297,-73.98945623363812,user_2758,First Park,2 2 AVENUE,Neighborhood Park
e5bff266-9d91-41f9-a1dc-75ae8b229fd0,2025-04-08T10:45:00,40.71349250569517,-73.98966020021557,2025-04-08 12:07:00,40.71394699168949,-73.98970313787233,user_6489,Captain Jacob Joseph Playground,13 HENRY STREET,Playground
b95ab0b4-0282-4b20-84a1-59896d0dd82a,2025-04-08T08:39:00,40.720567771950925,-73.98024719483584,2025-04-08 10:37:00,40.72138527532674,-73.980882638839,user_5662,Gustave Hartman Square,10 AVENUE C,Triangle/Plaza
7166d211-c217-42ce-bba6-dea005cc2420,2025-04-08T10:00:00,40.722195256886245,-73.98406015165793,2025-04-08 11:33:00,40.7225130630336,-73.98479044649554,user_8444,Hope Garden,193 EAST 2 STREET,Garden
24ca69f4-0ac7-4e94-a700-7bfad61c7b6b,2025-04-08T10:19:00,40.83560421941243,-73.9391576797723,2025-04-08 11:25:00,40.83520748007049,-73.9387255896571,user_9901,Morris-Jumel Ecological Education Garden,457 WEST 162 STREET,Garden
1b47a789-8ef5-4013-86ee-f5fd5e79f2e4,2025-04-08T06:56:00,40.71219812345583,-73.98810282521463,2025-04-08 08:50:00,40.71248480482424,-73.9872156149132,user_9590,Little Flower Playground,300 CHERRY STREET,Playground
92084303-652d-47c3-9524-9fde71a71700,2025-04-08T07:16:00,40.8013001931455,-73.93049123888036,2025-04-08 08:37:00,40.80036249442452,-73.93141727129996,user_9092,Louis Cuvillier Park,2412 1 AVENUE,Neighborhood Park
220eb107-30e9-40e5-9b56-d971b34a1f09,2025-04-08T06:56:00,40.7218568101227,-73.98567580944254,2025-04-08 08:36:00,40.72285398363288,-73.98627262745687,user_3198,ABC Playground,164 ESSEX STREET,Playground
5ba6ffda-f950-49b7-a758-755f5f7b7f6d,2025-04-08T06:47:00,40.780743786123615,-73.98716119039365,2025-04-08 07:21:00,40.78143838320995,-73.98657897196719,user_9261,Riverside Park South,400 RIVERSIDE DRIVE,Community Park
43799de5-365f-49c8-90ff-0bb33b9a5b96,2025-04-08T10:09:00,40.81015473063943,-73.94033555877915,2025-04-08 11:37:00,40.81000727787799,-73.93956397800791,user_8668,Courtney Callender Playground,2122 5 AVENUE,Playground
293a6007-89de-4393-92b6-64d2044aa22b,2025-04-08T08:18:00,40.76107926328636,-73.9927469033595,2025-04-08 08:59:00,40.76029518694571,-73.9931157117194,user_5470,Mathews-Palmer Playground,437 WEST 45 STREET,Playground
faf06529-f66b-4336-8f06-c03df49f7578,2025-04-08T10:13:00,40.79175360042985,-73.94547037883957,2025-04-08 11:23:00,40.79217840305965,-73.9458502270737,user_4159,White Playground,167 EAST 105 STREET,Playground
082cf7b6-49ea-409d-a422-f8dbff1aa96e,2025-04-08T08:13:00,40.79968890396423,-73.96203692828661,2025-04-08 09:15:00,40.79957602862296,-73.96224048017524,user_2845,Mobilization For Change,955 COLUMBUS AVENUE,Garden
70cc4a66-379b-4de6-96bf-7dde72b77653,2025-04-08T08:32:00,40.80255456580772,-73.93833661623387,2025-04-08 09:43:00,40.80335309933796,-73.93770580407255,user_6417,Life Spire Garden,2015 LEXINGTON AVENUE,Garden
ba7e7867-db73-4740-999b-afe523975bee,2025-04-08T09:16:00,40.76013726622719,-73.96245931414859,2025-04-08 10:00:00,40.75978148986668,-73.96251251461324,user_3662,Honey Locust Park,1130 2 AVENUE,Triangle/Plaza
dec91687-539b-41a6-b9bf-3b1e85743eb3,2025-04-08T06:05:00,40.79144347341269,-73.9393568469474,2025-04-08 07:26:00,40.79074014106401,-73.94028360540433,user_8518,Humacao Community Garden,335 EAST 108 STREET,Garden
fe50d191-3a94-4d56-910a-284d3e66a8ba,2025-04-08T09:53:00,40.728299824831936,-73.9789702893822,2025-04-08 11:28:00,40.72755220800855,-73.97867648838461,user_5215,Vamos Sembrar,198 AVENUE B,Garden
96e22aad-2988-416b-bfd9-099c65612776,2025-04-08T08:02:00,40.72834481006422,-73.97893754532485,2025-04-08 08:32:00,40.72859344505279,-73.97936532353376,user_4050,Community Garden Association,200 AVENUE B,Garden
47d9a363-e5f3-4f10-a97d-d2832496c27f,2025-04-08T06:21:00,40.82122637435639,-73.953952321884,2025-04-08 08:15:00,40.82139710373348,-73.95322804482306,user_1230,Montefiore SquarePark,,Triangle/Plaza
dbbe670b-a314-4e86-8a96-fcfbe61e05d9,2025-04-08T07:40:00,40.80433096550367,-73.95605540656489,2025-04-08 09:19:00,40.80475527109652,-73.9569597984964,user_6523,Garden Of Love,302 WEST 116 STREET,Garden
dc4ad34d-2ff2-45a2-b2cd-52b37fef386b,2025-04-08T08:10:00,40.816216600310135,-73.94087199179819,2025-04-08 09:39:00,40.81597840910777,-73.94056052906308,user_5833,Elizabeth Langley Memorial Garden,121 WEST 137 STREET,Garden
2540db50-bdc2-455d-a32b-44fb968eb41b,2025-04-08T09:35:00,40.8245496103866,-73.93463154912021,2025-04-08 10:57:00,40.824744394097,-73.93508511590798,user_4164,Frederick Johnson Playground,2619 ADAM C POWELL BLVD,Recreational Field/Courts
469e39ab-4d2c-4d84-8f2f-3f5308144839,2025-04-08T09:35:00,40.79523159713568,-73.94366336049531,2025-04-08 10:11:00,40.794821392627576,-73.94306467567228,user_3875,Family Community Garden,156 EAST 111 STREET,Garden
d0d4e955-bc89-4294-94ea-bff86bbb2fb9,2025-04-08T06:07:00,40.72757234194921,-73.99236371147707,2025-04-08 07:01:00,40.72758344409819,-73.99248980871081,user_7643,Merchant's House Museum,29 EAST 4 STREET,Historic House Park
8db6c8c1-ec03-4019-afaa-1e94422eba44,2025-04-08T06:56:00,40.82409314653095,-73.9498918427289,2025-04-08 08:32:00,40.8239535451826,-73.95009179917962,user_8007,Frank White Neighborhood Service Center,506 WEST 143 STREET,Garden
07abf2bb-fed9-4f00-be26-24acdae4b56a,2025-04-08T07:34:00,40.72251216406495,-73.98353466849754,2025-04-08 08:50:00,40.72309835625115,-73.98365519523013,user_9442,Miracle Garden,196 EAST 3 STREET,Garden
2d4e7a06-817d-4973-90c3-0bc199722aae,2025-04-08T06:53:00,40.72569023309628,-73.97752231492504,2025-04-08 08:42:00,40.72491906124114,-73.9766093574894,user_6372,9th St Community Garden Park,152 AVENUE C,Garden
0a762ca1-a8d7-4cf5-afb1-b4f81f723dce,2025-04-08T08:37:00,40.79690258082842,-73.96157941135702,2025-04-08 10:10:00,40.79721200674347,-73.9619013381002,user_2421,W 104th Street Garden,14 WEST 104 STREET,Garden
8d495d92-61db-414f-874b-62a7186cbab1,2025-04-08T10:09:00,40.817266040677616,-73.9406885465869,2025-04-08 11:59:00,40.81802145310375,-73.94131491215173,user_7567,Abyssinian Tot Lot,128 WEST 139 STREET,Playground
b96d3c6c-49f1-4d2a-9867-4873c110bb28,2025-04-08T09:08:00,40.80942764383936,-73.94248043243698,2025-04-08 10:34:00,40.80953031429614,-73.94209629545476,user_2562,Unity Gardens,53 WEST 128 STREET,Garden
2f24fea9-8e45-4ec9-bdb4-ba31a96ca82b,2025-04-08T06:19:00,40.73431535995808,-73.99925426415518,2025-04-08 06:55:00,40.735046344589485,-73.99951957030126,user_4027,Womens House Of Detention,421 6 AVENUE,Garden
c591d7b3-aaa1-4c5b-b4ef-a7a696d9e7de,2025-04-08T08:57:00,40.81361237654824,-73.9427285671402,2025-04-08 09:53:00,40.81347251643157,-73.94213398537944,user_3303,Parks Council Success Garden,116 WEST 134 STREET,Garden
540acaf5-7af7-40dd-bedd-d7607f122bf9,2025-04-08T06:57:00,40.81214026317858,-73.94311807812622,2025-04-08 08:01:00,40.81291644522256,-73.94358463673461,user_8822,132 St Block Association Park,108 WEST 132 STREET,Garden
3baee261-4bf6-40b7-aef4-eb9702371808,2025-04-08T08:13:00,40.724225697923856,-73.98194087171696,2025-04-08 09:53:00,40.72405332506621,-73.9827756487037,user_6301,6th St and Ave B Community Garden,84 AVENUE B,Garden
71e9ccb3-ab6c-401d-96d7-c181399c1a96,2025-04-08T07:42:00,40.84688733011288,-73.92859699803412,2025-04-08 08:28:00,40.84754216856244,-73.92874799871149,user_5064,Harlem River Park,,Parkway
0dfc4939-da46-4f81-982d-f5995d510ff2,2025-04-08T06:22:00,40.78854994221926,-73.9475961405579,2025-04-08 07:28:00,40.788347402587775,-73.9477349262539,user_1111,Sunshine Playground,192 EAST 101 STREET,Playground
1aea6952-cc3b-4149-b780-01f4f1f8d072,2025-04-08T10:56:00,40.70932680472406,-74.0016459156729,2025-04-08 12:22:00,40.70978602973933,-74.00065571934321,user_5272,Fishbridge Garden,388-340 PEARL ST,Garden
7b3e2648-1a25-480a-bfd5-9f17a582418e,2025-04-08T09:39:00,40.80241440664789,-73.93787523556922,2025-04-08 11:38:00,40.80203950334788,-73.93851432259734,user_7284,Dr. Ronald E. McNair Playground,167 EAST 122 STREET,Neighborhood Park
b1529dc9-ed46-479d-9ce9-f7835a137949,2025-04-08T07:59:00,40.82817842692435,-73.94263311848547,2025-04-08 09:31:00,40.82780347406664,-73.94304558564747,user_4858,Convent Garden,481 WEST 151 STREET,Triangle/Plaza
213a5e7a-236f-421d-8042-430703b3ed7b,2025-04-08T07:55:00,40.77873959951347,-73.98422664225284,2025-04-08 08:40:00,40.778249379106434,-73.98502144643727,user_8319,Septuagesimo UNO,256 WEST 71 STREET,Triangle/Plaza
aca7c7e7-9f5b-4a37-9682-7f88136bc0d4,2025-04-08T07:51:00,40.7628909875076,-73.99237523495403,2025-04-08 08:24:00,40.76379817254284,-73.99271939514334,user_5374,Hell's Kitchen Park,670 10 AVENUE,Neighborhood Park
e239333e-7e53-4a8f-b4e1-fa0c52d10a13,2025-04-08T07:56:00,40.724993869732735,-73.97524106885247,2025-04-08 09:46:00,40.72536751180367,-73.97564978895379,user_6400,Dry Dock Playground,149 EAST 10 STREET,Community Park
351e4235-a415-4cb2-b671-7a5c6f9e4162,2025-04-08T09:01:00,40.7221489825138,-73.97892875271094,2025-04-08 10:48:00,40.722097518284976,-73.97903692118474,user_5947,El Jardin Del Paraiso Park,706 EAST 5 STREET,Garden
50fd6b9c-f2bb-44cf-8bbb-f6dd4fbe8b7e,2025-04-08T07:47:00,40.78840436586529,-73.97170273649769,2025-04-08 08:47:00,40.78758681544202,-73.97126741067507,user_1187,Playground Eighty Nine LXXXIX,116 WEST 89 STREET,Jointly Operated Playground
78256ced-b795-433b-b07f-59440e6e0c4b,2025-04-08T08:50:00,40.85972020674402,-73.93135505855416,2025-04-08 10:50:00,40.85889093545869,-73.93202176901003,user_5285,Fort Tryon Park,4565 BROADWAY,Community Park
f91fe9a3-c9a6-4235-ae6d-6da43db47ad6,2025-04-08T09:51:00,40.81079888905911,-73.94110416163524,2025-04-08 10:41:00,40.81066264209621,-73.94121634487304,user_6890,United Block Association Garden,34 WEST 131 STREET,Garden
f59c34cc-c343-4a60-932a-30f9e6518ad8,2025-04-08T07:17:00,40.72420486495399,-73.978211389293,2025-04-08 08:26:00,40.72469404289237,-73.97831712997365,user_4871,Sam and Sadie Koenig Garden,237 EAST 7 STREET,Garden
a3940fe4-f31e-4752-b92a-422b9b89c2d3,2025-04-08T07:50:00,40.80391061179661,-73.96338200344834,2025-04-08 09:30:00,40.80365590551536,-73.96292837465693,user_2017,West 111th St. People's Garden,1040 AMSTERDAM AVENUE,Garden
46327aa4-1e91-4cf5-8546-00311713264d,2025-04-08T06:24:00,40.80829663882479,-73.95192635084753,2025-04-08 06:55:00,40.80755686973194,-73.95110313638584,user_2936,Our Little Green Acre Garden,275-277 WEST 122 STREET,Garden
6a971d61-4c58-4531-8e8f-bace70dea336,2025-04-08T06:54:00,40.77938411631417,-73.98158856480487,2025-04-08 08:34:00,40.77850407827011,-73.98135886184046,user_8625,Broadway Malls 59th-110th,,Mall
26781a6b-bbc6-4359-9ac0-73fe5efae21d,2025-04-08T09:14:00,40.8031905364099,-73.93964584301888,2025-04-08 10:36:00,40.8041037856576,-73.9397759620107,user_6026,Jackie Robinson Community Garden,103 EAST 122 STREET,Garden
54d684fa-c0e5-41bd-a1a7-1a7a286ba14d,2025-04-08T07:52:00,40.80716175258625,-73.94515009314163,2025-04-08 08:33:00,40.80728511934939,-73.94487115452065,user_3616,W 124th Street Community Garden,77 WEST 124 STREET,Garden
2b0453a2-564e-40bd-9dc1-35aa0db8b525,2025-04-08T09:22:00,40.72448463963343,-73.97961759777417,2025-04-08 10:20:00,40.724824666162895,-73.9790346421165,user_7642,Lower East Side Ecology Center,215 EAST 7 STREET,Garden
28369192-c60b-4651-b4e0-8352f11b15b4,2025-04-08T08:52:00,40.72238007890999,-73.98207398041201,2025-04-08 09:36:00,40.72220169617584,-73.98295926428338,user_9233,Los Amigos Garden,221 EAST 3 STREET,Garden
23f77022-e99b-47c3-8583-ffcde3fe3b0d,2025-04-08T07:14:00,40.788942233468966,-73.93611806830104,2025-04-08 08:43:00,40.78968944821344,-73.93577570052325,user_6095,Pier 107 CVII,500-501 E. 107 Street,Waterfront Facility
66fe93ce-6f10-46d7-b32c-a9889896986a,2025-04-08T06:42:00,40.72207358623587,-73.98257998337623,2025-04-08 07:27:00,40.72295584597358,-73.98276756291321,user_2923,Kenkeleba House,218 EAST 2 STREET,Garden
8378a2d1-4f18-486e-be54-5e572ee69be3,2025-04-08T07:25:00,40.7253358541101,-73.97974062578366,2025-04-08 09:17:00,40.72518172782163,-73.97971445374473,user_5833,De Colores Cmty Yard and Center,313 EAST 8 STREET,Garden
9cb2694b-2b65-4068-94b4-6fae76510c4a,2025-04-08T08:17:00,40.72217927211572,-73.98159775544,2025-04-08 09:06:00,40.72301095945766,-73.98109795947148,user_7021,Brisas Del Caribe,237 EAST 3 STREET,Garden
c91c5ce8-614f-4b82-9dc1-2020cb9bce93,2025-04-08T06:49:00,40.72240368422086,-73.98023261302485,2025-04-08 08:22:00,40.7215065763808,-73.98091263957167,user_4618,The Secret Garden,53 AVENUE C,Garden
7d880e42-f086-4b90-9257-6e43a92b1d7b,2025-04-08T08:22:00,40.79892576370296,-73.94043823738292,2025-04-08 09:29:00,40.79850102251826,-73.94137595614474,user_4590,117th St Community Garden,172 EAST 117 STREET,Garden
db45c08b-4a94-4d8a-bfbe-abe4fad400fd,2025-04-08T10:25:00,40.722417898067874,-73.98142360703135,2025-04-08 12:00:00,40.72204279586605,-73.9807262684114,user_3188,Generation X,272 EAST 4 STREET,Garden
b0663a09-b7e0-4235-acf1-2fc3305ddb67,2025-04-08T10:21:00,40.81129824765644,-73.9515561700332,2025-04-08 12:21:00,40.81050544878829,-73.9511999922892,user_8834,William B. Washington Memorial Garden,323 WEST 126 STREET,Garden
bd8df04b-d461-4a40-ade1-5f176def15d3,2025-04-08T06:07:00,40.81759153032323,-73.9610283358182,2025-04-08 07:11:00,40.81760635541716,-73.96115199016832,user_3509,Riverside Park,,Community Park
00033547-b679-4901-ad06-61aaaa5b6f43,2025-04-08T08:11:00,40.72406974355359,-73.9915495407541,2025-04-08 09:34:00,40.72337920390531,-73.99229708070548,user_8454,Liz Christy Garden,285 BOWERY,Garden
4f6059b0-a6f4-494e-b4a8-8d545ff19873,2025-04-08T10:16:00,40.72526435365439,-73.97812609359605,2025-04-08 11:47:00,40.7252287324468,-73.97865410283521,user_7121,La Plaza Cultural,143 AVENUE C,Garden
f35caef8-b17e-4235-b0d0-48263aa269ea,2025-04-08T06:06:00,40.79793006639343,-73.93613975446817,2025-04-08 07:36:00,40.7986246160897,-73.93584942871678,user_7813,Diamante Garden,306 EAST 118 STREET,Garden
26307776-f010-4657-b177-79144f8d1e63,2025-04-08T10:27:00,40.808627989189205,-73.95955535979222,2025-04-08 11:28:00,40.808328217177646,-73.95983105862713,user_9998,Old Croton Aqueduct Gatehouse,1195 AMSTERDAM AVENUE,Garden
399b29a2-8fc0-4749-a67e-0665d75dbe07,2025-04-08T08:46:00,40.80254121752635,-73.93495122934803,2025-04-08 10:14:00,40.80265374847856,-73.93405229512427,user_8714,Detective Omar Edwards Park,227 EAST 124 STREET,Neighborhood Park
3933e21b-f1c4-4578-af17-05e1c7f9b9b7,2025-04-08T08:27:00,40.796690972987605,-73.93144538061266,2025-04-08 10:07:00,40.795920743614666,-73.9323806099647,user_9806,Pleasant Village Community Garden,342 PLEASANT AVENUE,Garden
8c4eca03-e231-4c94-8a67-0a4a4c2d159e,2025-04-08T10:32:00,40.808616586724725,-73.93979408651596,2025-04-08 11:20:00,40.808173723149714,-73.94048721018918,user_4578,Harlem Rose Garden,6 EAST 129 STREET,Garden
16c87b11-ec68-4368-adfc-0d45bd3be1ab,2025-04-08T06:24:00,40.811037515599565,-73.95073552024594,2025-04-08 07:43:00,40.81048983378823,-73.95083567510851,user_5054,CEP Community Garden,2351 FRED DOUGLASS BLVD,Garden
8eb0ec4b-8ba3-4c9a-bb72-e03daea9cc7a,2025-04-08T10:12:00,40.74830574047665,-74.00186615276677,2025-04-08 11:06:00,40.74816396529842,-74.00212422375166,user_2341,Chelsea Recreation Center,430 WEST 25 STREET,Buildings/Institutions
d8458bef-9527-44a8-9d1c-863ef88f8ff0,2025-04-08T08:02:00,40.72417079663416,-73.98558059554601,2025-04-08 09:48:00,40.72429272803765,-73.98569271696766,user_9609,McKinley Playground,162 EAST 4 STREET,Jointly Operated Playground
699f2f89-0c90-4a1b-8adb-e05debc1a358,2025-04-08T09:00:00,40.78885176366231,-73.93787392348952,2025-04-08 10:35:00,40.789386628726014,-73.93872015263186,user_8319,East River Playground,421 EAST 106 STREET,Jointly Operated Playground
d90d6a08-d931-49ae-bfc3-e5c5c0e6a6c0,2025-04-08T10:59:00,40.74660718418456,-74.0038770189828,2025-04-08 11:46:00,40.7468506317955,-74.00460162876715,user_9653,Clement Clarke Moore Park,480 WEST 22 STREET,Neighborhood Park
68ce8390-0b3d-4598-8ae9-1d65465f5578,2025-04-08T10:43:00,40.73668990786375,-74.00542601073961,2025-04-08 11:21:00,40.737039861286334,-74.0056921108423,user_6927,Bleecker Playground,580 HUDSON STREET,Neighborhood Park
179cd989-6d95-4abc-a264-3a53faa83a21,2025-04-08T07:23:00,40.74760581781116,-73.99826871504614,2025-04-08 08:28:00,40.747719297321495,-73.99863994416351,user_2279,Penn South Playground,346 WEST 26 STREET,Neighborhood Park
7e290ae8-c6ed-46d5-ad74-cc1ae50a7280,2025-04-08T09:04:00,40.71267570545925,-73.99842801890317,2025-04-08 10:27:00,40.712893695290354,-73.99887063937057,user_2838,St. James Triangle,51 ST JAMES PLACE,Triangle/Plaza
1ab46087-802b-4bab-8580-2bbe6556556b,2025-04-08T08:39:00,40.77725371273768,-73.98344684488977,2025-04-08 09:52:00,40.77756937519367,-73.98252580478524,user_2011,Matthew P. Sapolin Playground,22484 WEST 70 STREET,Jointly Operated Playground
055d43ed-d2b4-4f4a-9eac-863f2ef75f28,2025-04-08T08:42:00,40.79991968997096,-73.93435786750481,2025-04-08 10:16:00,40.80030663234667,-73.9353060408231,user_9972,Wagner Playground,2350 2 AVENUE,Jointly Operated Playground
961a9814-2150-4b99-b761-345e140b61ab,2025-04-08T06:46:00,40.81971458884944,-73.95184944016654,2025-04-08 07:50:00,40.81877249521157,-73.95247734406759,user_9281,Jacob H. Schiff Playground,1540 AMSTERDAM AVENUE,Jointly Operated Playground
1d22b309-9819-4ed9-afce-052812b82fd5,2025-04-08T08:32:00,40.76335587055183,-73.98978681107555,2025-04-08 09:02:00,40.76290241132925,-73.98975132052713,user_4312,Gutenberg Playground,409 WEST 49 STREET,Jointly Operated Playground
0ae96b85-b6b8-4bbc-bbd9-aa0158424490,2025-04-08T08:42:00,40.79645344285694,-73.96759302243127,2025-04-08 09:48:00,40.796978261892896,-73.96676593741965,user_9792,Frederick Douglass Playground,825 AMSTERDAM AVENUE,Neighborhood Park
d9f5bac7-a057-41a6-9cb0-2df4c0552b07,2025-04-08T09:20:00,40.78200746697835,-73.97854070956227,2025-04-08 10:28:00,40.78285054202041,-73.97930518757128,user_3455,Tecumseh Playground,361 AMSTERDAM AVENUE,Jointly Operated Playground
20a93a82-6975-46c2-83eb-5611b5d23276,2025-04-08T09:44:00,40.72172861267265,-73.99588874233505,2025-04-08 11:29:00,40.72143065951413,-73.995338813368,user_3695,Desalvio Playground,44 SPRING STREET,Playground
610ddf7e-25b0-4a40-b1e0-b40c9c3064ac,2025-04-08T08:35:00,40.81371589836704,-73.93798957464757,2025-04-08 10:19:00,40.81307870948347,-73.93758149902516,user_6375,Howard Bennett Playground,2230 5 AVENUE,Jointly Operated Playground
4ebb4d48-aa83-4f3d-bbdf-80b365f6b83f,2025-04-08T07:12:00,40.8297839924802,-73.93659161474059,2025-04-08 09:06:00,40.82907049546088,-73.93716247388974,user_9525,Holcombe Rucker Park,2930 FRED DOUGLASS BLVD,Neighborhood Park
2b763f1e-1f9d-4e15-a040-4433af01fcba,2025-04-08T09:42:00,40.78685884929765,-73.94706292181864,2025-04-08 11:14:00,40.78717353856732,-73.94683916745312,user_8239,Cherry Tree Park,1785 3 AVENUE,Neighborhood Park
e474857b-e9f5-4754-acfb-e682b724162b,2025-04-08T09:43:00,40.78896108940131,-73.94934658346982,2025-04-08 10:32:00,40.78810026024381,-73.94895862218773,user_2904,Ebenezer Wesleyan Garden,1574-1576 LEXINGTON AVENUE,Garden
18f15847-1fea-4ad6-b212-c43dfbe830eb,2025-04-08T07:39:00,40.79266284680031,-73.94895711388925,2025-04-08 09:06:00,40.79314478491855,-73.94795985620223,user_4365,Mae Grant Playground,55 East 104 STREET,Neighborhood Park
2618aff8-a89b-402c-b504-5dd765d1b60f,2025-04-08T10:19:00,40.81192212498151,-73.94646185970547,2025-04-08 11:57:00,40.81286574561902,-73.94706150302348,user_9008,St. Nicholas Playground North,2200 ADAM C POWELL BLVD,Playground
014bc87f-1c00-46ec-8691-23acb73b5829,2025-04-08T09:35:00,40.81151028198247,-73.94676240794124,2025-04-08 11:06:00,40.81069379734858,-73.94749095110578,user_2489,St. Nicholas Playground South,2400 FRED DOUGLASS BLVD,Playground
65b78256-155e-4aa9-bd1c-b9cec1876940,2025-04-08T06:19:00,40.80685133780567,-73.93521372163848,2025-04-08 07:33:00,40.80691230318298,-73.93606561756012,user_9361,Park,2145 LEXINGTON AVENUE,Triangle/Plaza
acd569de-1b67-42a9-bcb1-be9b69343f85,2025-04-08T08:13:00,40.80601215771191,-73.93496556044501,2025-04-08 09:25:00,40.80576454652332,-73.93562024771704,user_8298,Alice Kornegay Triangle,145 EAST 128 STREET,Playground
5dbb45a8-93e1-4f58-8f04-8a2c2dc57b78,2025-04-08T09:50:00,40.811392555636935,-73.95639650870265,2025-04-08 11:30:00,40.81129984721828,-73.95596976891393,user_1911,Playground one Twenty Five CXXV (PS 125),413 WEST 123 STREET,Jointly Operated Playground
61692e51-e3cb-4f12-b0e1-c1916b479a48,2025-04-08T10:38:00,40.809514995865975,-73.93804386160019,2025-04-08 12:17:00,40.80882981441766,-73.93704933679214,user_8429,Moore Playground,2058 MADISON AVENUE,Jointly Operated Playground
af9ef027-8519-45ae-be8f-d56030cbdffd,2025-04-08T08:29:00,40.74900978349619,-73.97138027879109,2025-04-08 09:47:00,40.7486330582356,-73.97075925235437,user_3161,Tudor Grove Playground,328 EAST 42 STREET,Playground
a5ff4c68-7885-4dcd-b882-89e89d5f9b22,2025-04-08T09:28:00,40.74957908731897,-73.97052783690923,2025-04-08 10:56:00,40.74922785310313,-73.9695927144365,user_9409,Mary O'Connor Playground,327 EAST 42 STREET,Playground
34f59048-c1b1-45e0-accd-f4e9958c4d5d,2025-04-08T07:32:00,40.74884250487182,-73.97023732560665,2025-04-08 08:43:00,40.74972531971976,-73.96926417628737,user_7806,Trygve Lie Plaza,725 1 AVENUE,Triangle/Plaza
fcc7ce0b-07b4-4fef-b5ca-d9ae52bd5bd2,2025-04-08T09:50:00,40.80125912674889,-73.96263452668934,2025-04-08 10:44:00,40.801451574293296,-73.96229884710836,user_8484,Anibal Aviles Playground,111 WEST 108 STREET,Playground
db194725-eeff-49b4-b5a5-37ef52077c44,2025-04-08T07:42:00,40.80095740462384,-73.96310982046077,2025-04-08 09:41:00,40.80172408899288,-73.96269073948713,user_1945,Booker T. Washington Playground,960 COLUMBUS AVENUE,Jointly Operated Playground
655c6db4-11b8-4a1c-9272-fdd5d56c94a1,2025-04-08T06:18:00,40.86264738798371,-73.9204737673532,2025-04-08 07:18:00,40.86195854779052,-73.92037377305823,user_8575,Monsignor Kett Playground,500 WEST 204 STREET,Neighborhood Park
07889722-e362-4074-aef3-faad48c22771,2025-04-08T10:42:00,40.710722168554696,-73.99740629942715,2025-04-08 12:25:00,40.71123104031295,-73.9978255748616,user_6049,Alfred E. Smith Playground,86 CATHERINE STREET,Community Park
443fdd30-cf05-404f-b280-91515b6e2205,2025-04-08T10:21:00,40.81554977109943,-73.95626156437389,2025-04-08 11:40:00,40.81464929608429,-73.95666165101741,user_1356,Sheltering Arms Playground,500 WEST 129 STREET,Community Park
efb580fe-ff50-40c8-950b-e815a1ebbfa7,2025-04-08T06:52:00,40.784364696701815,-73.94548909480652,2025-04-08 07:51:00,40.78352785975688,-73.94617408430788,user_7487,Marx Brothers Playground,1860 2 AVENUE,Jointly Operated Playground
c60c23af-e850-4ff6-a203-05870b25dbc2,2025-04-08T07:43:00,40.81814567943774,-73.93439184815134,2025-04-08 09:05:00,40.8180319053864,-73.93397272056892,user_5169,Brigadier General Charles Young Playground,680 LENOX AVENUE,Neighborhood Park
4cac7f29-0daf-4f03-89c8-14144a10c428,2025-04-08T08:14:00,40.77396589185364,-73.98652618484202,2025-04-08 08:49:00,40.77381392139986,-73.98612574633009,user_1049,Samuel N. Bennerson 2nd Playground,200 WEST 64 STREET,Neighborhood Park
d858a838-577a-4f19-b9d3-c1f5b6b1aaeb,2025-04-08T07:09:00,40.7944060694511,-73.94713332007458,2025-04-08 08:19:00,40.79462022146598,-73.94778513805508,user_4570,Peter Minuit Playground,1480 PARK AVENUE,Jointly Operated Playground
02f55ca3-0052-480e-a199-d518abaacee2,2025-04-08T06:02:00,40.71150340209314,-73.98181770672083,2025-04-08 07:32:00,40.71133176956891,-73.98209472235459,user_2196,Vladeck Park,656 WATER STREET,Neighborhood Park
eb96a176-1975-4537-90ad-d4bb105e6435,2025-04-08T07:30:00,40.759215702621965,-73.99144035341237,2025-04-08 09:30:00,40.75864684055264,-73.99199187018188,user_1742,McCaffrey Playground,341 WEST 43 STREET,Playground
545ad844-737d-44d6-b453-13455ec3d3cf,2025-04-08T10:54:00,40.72977972684254,-74.00547820643013,2025-04-08 12:12:00,40.72980441945414,-74.00450794133667,user_7941,Tony Dapolito Recreation Center,2 7 AVENUE,Buildings/Institutions
b6f758d6-aa46-45df-8cc0-4df17d75077d,2025-04-08T06:29:00,40.7142620844906,-73.9888296647971,2025-04-08 07:48:00,40.71395243020156,-73.98824553344987,user_6644,Seward Park,57 ESSEX STREET,Neighborhood Park
30b8f58a-9916-49be-88ca-e7725d370540,2025-04-08T09:56:00,40.70927048285853,-74.00507859354515,2025-04-08 11:50:00,40.70849226240293,-74.00560512117657,user_2044,DeLury Square,60 GOLD ST,Triangle/Plaza
928c06fa-eed6-4147-a8c1-e189cdbe787e,2025-04-08T10:12:00,40.71416768021706,-74.00325136498869,2025-04-08 12:05:00,40.71452411600293,-74.00326332111379,user_9866,Thomas Paine Park (Foley Square),474 PEARL STREET,Triangle/Plaza
5edd73f6-cf5e-4808-810a-93c418d44232,2025-04-08T09:31:00,40.71108804282333,-73.98030413929077,2025-04-08 10:20:00,40.71127431132412,-73.98058234624187,user_1987,Corlears Hook Park,397 FDR DRIVE W LANE,Neighborhood Park
fc764dce-cfd1-4d7e-9761-6c936a21438d,2025-04-08T09:15:00,40.87205126799587,-73.91987771815732,2025-04-08 10:48:00,40.872105136210166,-73.9197331633431,user_2130,Isham Park,570 WEST 214 STREET,Community Park
da4ff6fa-7623-4638-979a-f536bfa12586,2025-04-08T07:41:00,40.71941221294164,-73.98384053517334,2025-04-08 08:15:00,40.71902905172534,-73.98390572349476,user_8734,Nathan Straus Playground,178 RIVINGTON STREET,Jointly Operated Playground
5186dc02-f9d6-4f4e-b548-1f00049ab208,2025-04-08T06:57:00,40.80461500632765,-73.9529195300737,2025-04-08 07:43:00,40.804056043198656,-73.95195350615842,user_1519,TRUCE Garden,143-145 St. Nicholas Ave.,Garden
491ee280-9e39-49da-8e0c-cd3cbfdebe2f,2025-04-08T06:49:00,40.72228864543384,-74.0061927210609,2025-04-08 08:23:00,40.72325753675049,-74.00693317860147,user_5703,Albert Capsouto Park,68 VARICK STREET,Triangle/Plaza
20d8f7e0-7fdc-4242-86ca-0233e3e686ad,2025-04-08T09:14:00,40.82735275944579,-73.93916001222117,2025-04-08 10:59:00,40.826462323362826,-73.9383915193275,user_7698,Bradhurst Gardens Association,,Garden
05403030-886b-4740-898d-09f6de7c6204,2025-04-08T07:51:00,40.81239369455827,-73.96215820728446,2025-04-08 09:03:00,40.81180254080697,-73.96302671107392,user_3948,Sakura Park,,Neighborhood Park
1ffb3aa6-2521-47fd-aff1-8ee77346f826,2025-04-08T10:29:00,40.75882972887768,-73.98509027731775,2025-04-08 11:11:00,40.75972037705213,-73.9852939573562,user_3218,Father Duffy Square,200 WEST 47 STREET,Triangle/Plaza
1e545e26-7975-4445-91ad-eb797a0ff3fa,2025-04-08T06:35:00,40.8474505331243,-73.94288174658638,2025-04-08 08:01:00,40.84798523217892,-73.94244787938936,user_7887,Haven Avenue,,Parkway
b1faede7-0e8f-4c7a-943a-1f155e103e58,2025-04-08T07:58:00,40.82150065312148,-73.95876130733136,2025-04-08 08:40:00,40.822028974913,-73.95880397711153,user_7135,West Harlem Piers,,Waterfront Facility
6f1ea163-168f-452e-8d2e-ef911a352f89,2025-04-08T06:29:00,40.760446109219664,-73.95637192378254,2025-04-08 08:06:00,40.7600250034821,-73.95655033354122,user_7266,Andrew Haswell Green Park,555 EAST 60 STREET,Neighborhood Park
7b4d0a68-1369-4c2f-a26f-11199a6b61bc,2025-04-08T07:51:00,40.75543914166608,-73.96187594075163,2025-04-08 09:19:00,40.75467911035349,-73.9620570736967,user_8348,Sutton Parks,,Triangle/Plaza
529f51af-ab72-40fe-bf94-3fabe0a68d19,2025-04-08T09:42:00,40.75690506635918,-73.95995782993347,2025-04-08 10:13:00,40.756899837016405,-73.95980802891651,user_7184,Sutton Place Park,,Neighborhood Park
41b2bd33-6ac2-4555-8b22-cb85e282ddaa,2025-04-08T10:35:00,40.78079679778866,-73.9443920288644,2025-04-08 11:23:00,40.78065810781137,-73.94514137529988,user_7154,Park,,Triangle/Plaza
6ed653c9-7e36-4a49-8a64-5b8de8854772,2025-04-08T10:20:00,40.83222617107358,-73.94028372866029,2025-04-08 11:42:00,40.8314845424771,-73.94064967331937,user_2314,Bushman Steps,,Triangle/Plaza
aeff4543-e7b7-444e-97ed-4c8935c17688,2025-04-08T09:39:00,40.72974587195151,-74.00198570262627,2025-04-08 11:32:00,40.72981103664724,-74.00283737258674,user_9835,Minetta Triangle,,Triangle/Plaza
25e0b52f-68a9-4172-bb60-7a1ad15cab5b,2025-04-08T10:27:00,40.72273833277978,-73.98739691311997,2025-04-08 11:16:00,40.722198554211936,-73.98746524672072,user_3178,Peretz Square,,Triangle/Plaza
ce7b70ea-0140-4fc8-96bc-c700b2cbb028,2025-04-08T10:28:00,40.72119552136451,-73.98169431947319,2025-04-08 11:07:00,40.72131296849986,-73.98165959944956,user_6697,Allied Productions/Le Petit Versailles,,Garden
975c9902-788f-4d0b-ae02-b00ba9822120,2025-04-08T07:47:00,40.70746262758389,-74.00115016345597,2025-04-08 09:17:00,40.70779872392738,-74.00189349423448,user_2943,Peck Slip,,Triangle/Plaza
fb6dd942-ef46-4a50-92ea-5cc25b8207ec,2025-04-08T09:28:00,40.825356831013295,-73.93708260848376,2025-04-08 10:31:00,40.825065165356015,-73.93642450102749,user_3924,Bill Bojangles Robinson Playground,,Playground
99ca2730-7264-47b9-b021-6bc315545693,2025-04-08T08:48:00,40.85735386335116,-73.93731177923723,2025-04-08 10:01:00,40.85714800569965,-73.93720917235001,user_9802,Bennett Rest,,Nature Area
2f05cb17-440e-4f38-a3c1-3d6b850881c7,2025-04-08T07:53:00,40.79870489187804,-73.92910623570125,2025-04-08 09:42:00,40.79918897453279,-73.92893066372045,user_7439,Park,,Parkway
7c1d8f90-558e-489a-ae53-61ef1e3ceffe,2025-04-08T08:49:00,40.79726381838583,-73.9294891736786,2025-04-08 10:47:00,40.79713625757685,-73.9289536104039,user_9664,Strip,,Strip
435c5a36-b24a-4beb-b3f2-a660b6035f67,2025-04-08T10:31:00,40.843263470364654,-73.9438001476819,2025-04-08 11:51:00,40.84318297886536,-73.9445420817663,user_3086,Strip,,Strip
8aa41a0d-34e3-49e5-84fe-fc079860e654,2025-04-08T07:17:00,40.72693840616721,-73.97841702074984,2025-04-08 09:10:00,40.72609413139096,-73.97841129317695,user_4648,,626 EAST 11 STREET,Garden
1198a62b-8f2e-4748-a32a-6dba0c846105,2025-04-08T09:04:00,40.720683007483565,-73.98668001910579,2025-04-08 09:44:00,40.72030912874492,-73.98594359585096,user_1056,Children's Magical Garden,129 STANTON STREET,Garden
a9a0227e-22bd-404b-a79b-2dfb9314ad19,2025-04-08T08:15:00,40.81175488904596,-73.95154745115224,2025-04-08 09:27:00,40.81161345761856,-73.9508846695393,user_1372,St. Nicholas Miracle Garden,330 St. Nicholas Ave.,Garden
4a76f299-510f-4210-994e-a511082e9e59,2025-04-08T08:21:00,40.76623120629948,-73.99137621108147,2025-04-08 10:17:00,40.76604005206849,-73.99134000681562,user_5888,Oasis Garden,505 WEST 52 STREET,Garden
bcdcddeb-74e1-4e1a-8b82-57976ceeb556,2025-04-08T08:57:00,40.799818249847455,-73.94060097472858,2025-04-08 10:35:00,40.80009853318555,-73.94099272564297,user_8585,El Gallo Garden,1895 LEXINGTON AVENUE,Garden
59766235-fb88-4a32-92bd-5c0fa86976b6,2025-04-08T10:05:00,40.73807492407813,-74.00440277475899,2025-04-08 11:23:00,40.737653954489296,-74.00507884083987,user_9920,Jane Street Garden,36 JANE STREET,Garden
a704d6a2-331d-4954-a58d-f3301a0f5794,2025-04-08T07:09:00,40.79645475012323,-73.93417015112773,2025-04-08 08:19:00,40.79626481473736,-73.93330067545445,user_7948,St. Mark's Garden,415-421 EAST 117 STREET,Garden
94c3b4f5-8d2b-4729-be28-23f26ca80357,2025-04-08T07:24:00,40.78057042929017,-73.94997734022681,2025-04-08 09:14:00,40.78150282867224,-73.95052639965738,user_9715,Ruppert Park,,Neighborhood Park
0f3984e8-173c-45d9-9d8c-0471ef94ab63,2025-04-08T07:45:00,40.74669767209054,-73.9688026206353,2025-04-08 09:17:00,40.746041418451696,-73.96790765436168,user_7214,East River Esplanade 36th-38th,,Neighborhood Park
a4e762b5-3a2d-4928-8bd2-87a7cbdcbc1b,2025-04-08T07:04:00,40.76127607104207,-73.98931963848251,2025-04-08 08:43:00,40.76217129966072,-73.9892818428957,user_4762,Ramon Aponte Park,,Playground
6d8e6f93-edf6-48e0-8046-4e361833663e,2025-04-08T09:26:00,40.73296620780646,-74.00192654219055,2025-04-08 10:00:00,40.73288640161025,-74.00235844557001,user_5055,Sheridan Square Viewing Garden,,Triangle/Plaza
cb2eaef4-d680-4deb-9ff9-b8addc0ce0d4,2025-04-08T08:34:00,40.71222180074669,-74.01772017027533,2025-04-08 10:23:00,40.71260102082885,-74.01856245046575,user_8546,Battery Park City,,Neighborhood Park
481c88fc-c261-488c-ab1c-e75585ac8d17,2025-04-08T09:26:00,40.76275832903544,-73.99205855629361,2025-04-08 10:04:00,40.7624820344179,-73.99266595245464,user_6671,Clinton Community Garden,,Garden
b47757b6-1b2a-4dea-8a85-119e31787009,2025-04-08T06:13:00,40.72210890708081,-74.0055067518635,2025-04-08 07:13:00,40.721982330639946,-74.00459404860942,user_3541,Juan Pablo Duarte Square,,Triangle/Plaza
ccc89bf1-934f-4292-8653-86d051ee04a5,2025-04-08T09:24:00,40.71164217397294,-74.00006617589952,2025-04-08 11:14:00,40.71085390023973,-74.0005172738331,user_5516,James Madison Plaza,,Triangle/Plaza
0133e28c-53e1-49fb-aa82-7d72ef34ef34,2025-04-08T10:44:00,40.71325478355652,-73.99803558081696,2025-04-08 12:41:00,40.7131261366104,-73.99778553609406,user_4088,Kimlau Square,,Triangle/Plaza
aa23abdb-e34b-4ed0-935c-9ad188d16ec0,2025-04-08T06:54:00,40.82406373902644,-73.94865741277704,2025-04-08 08:00:00,40.82386463865907,-73.94842855622042,user_2848,Johnny Hartman Square,,Triangle/Plaza
46511ac6-8dec-4b95-a06e-a9f91bd9b120,2025-04-08T10:24:00,40.7980870386987,-73.96324214187145,2025-04-08 11:23:00,40.79724433287366,-73.96405528505768,user_1527,La Perla Garden,,Garden
e0db49e9-02e3-4acb-8722-d7fa86148668,2025-04-08T09:00:00,40.72709316677111,-73.97758303889856,2025-04-08 09:41:00,40.72783421560349,-73.97730106404396,user_7868,Campos Garden,,Garden
691ba2a2-79c9-43fc-957d-663be6182396,2025-04-08T08:19:00,40.72843924649057,-73.97958800019131,2025-04-08 09:44:00,40.72893085614349,-73.97940438330068,user_1256,El Sol Brilliante Jr,537 EAST 12 STREET,Garden
5947012b-c84a-44f4-bd62-01a0e2f4aa75,2025-04-08T09:54:00,40.79208120707743,-73.94010438496912,2025-04-08 10:36:00,40.79152435119522,-73.93994309196684,user_4943,Neighbors Of Vega Baja,,Garden
761a374d-fd57-42bb-95d0-8288769f619e,2025-04-08T09:34:00,40.72918418956291,-73.9797664556247,2025-04-08 11:25:00,40.72974242530012,-73.98042405437859,user_4376,Dias Y Flores,,Garden
08b36a71-6f38-4205-954d-c6dc8c78af2b,2025-04-08T10:51:00,40.71986381844216,-73.98448088352004,2025-04-08 12:51:00,40.7190165771971,-73.98423192514517,user_2102,Clinton Community Garden (LES),,Garden
089e66f1-7fae-4ebc-95f1-dd8245d79a77,2025-04-08T10:57:00,40.72522889577999,-73.97875922976267,2025-04-08 11:39:00,40.72549534511393,-73.97795522797529,user_2653,Earth People,,Garden
50bfd842-f6ba-4c63-afe9-f8704617b1d7,2025-04-08T07:31:00,40.82654626189426,-73.94187403533974,2025-04-08 08:57:00,40.8266074715358,-73.94219879616652,user_1550,Edgecombe Park,,Garden
faf4ef5e-16e5-4585-b033-55b8df122e8c,2025-04-08T07:17:00,40.82623766663962,-73.9420996730531,2025-04-08 08:08:00,40.82562547405215,-73.94125181360246,user_8314,Sugar Hill Garden,,Garden
b88692ce-8b45-42cc-b9a1-1c08b30351e0,2025-04-08T09:31:00,40.72451696450347,-73.98263473606178,2025-04-08 11:29:00,40.72506942096212,-73.98355234745473,user_1797,The Creative Little Garden,,Garden
243e0289-44c3-4a3f-a37a-6f9450e5d882,2025-04-08T06:24:00,40.72372542312458,-73.98077545284994,2025-04-08 07:32:00,40.7234276225945,-73.9800478904667,user_5009,5th St Slope Garden,,Garden
755bc845-831f-47c2-879d-0cab9e894370,2025-04-08T08:42:00,40.72391227886898,-73.9804655535945,2025-04-08 09:15:00,40.72482872556697,-73.98130310788471,user_1724,6BC Botanical Garden,,Garden
29f90d2c-bff9-456f-abcd-47f3da20df96,2025-04-08T09:46:00,40.72400364666563,-73.97698288808616,2025-04-08 10:21:00,40.72429453261797,-73.97608579437822,user_7590,Green Oasis and Gilbert's Garden,,Garden
63d029c5-565e-4766-92a1-5b31c95b3109,2025-04-08T07:53:00,40.72433152752166,-73.97776205372425,2025-04-08 09:04:00,40.723626907193655,-73.97722000898666,user_8191,Firemen's Memorial Garden,,Garden
cbafd76b-2e8b-4e86-b71a-eff67f410188,2025-04-08T09:58:00,40.78693837401329,-73.97095460664923,2025-04-08 10:35:00,40.78614398306885,-73.97142529483357,user_4839,W 87th Street Garden,,Garden
88a608b7-afa1-418d-8f1d-174a7de949c9,2025-04-08T07:39:00,40.80846787933356,-73.94095712590331,2025-04-08 08:46:00,40.80797981577756,-73.9415355091439,user_9843,Collyer Brothers Park,,Garden
e9842bff-c207-4650-b8c3-20073d64cb62,2025-04-08T10:01:00,40.80281920032333,-73.9399233237568,2025-04-08 11:16:00,40.80216619836821,-73.93977904935191,user_4559,Carolina Garden,,Garden
c5474dfe-9810-49fc-b82b-2846f29efe9d,2025-04-08T09:37:00,40.76727280943991,-73.99383726769912,2025-04-08 10:54:00,40.76657854901792,-73.99360105084646,user_1924,De Witt Clinton Park,601 W 52 STREET,Playground
52efc2b0-a456-4630-9dad-79df2670ca39,2025-04-08T10:42:00,40.72798141804408,-74.0026158828559,2025-04-08 12:07:00,40.72849972280417,-74.00355531105875,user_3295,Playground of the Americas,,Playground
f08988bf-8997-4337-86fa-61b2f597b8f0,2025-04-08T06:05:00,40.73009066821069,-74.0029299579995,2025-04-08 06:53:00,40.72924137475785,-74.0021519642366,user_9255,Downing Street Playground,273 6 AVENUE,Playground
ae263b2d-c6fb-42b4-a60b-9ac44c7f10b0,2025-04-08T09:08:00,40.747139784284265,-73.98126898270925,2025-04-08 10:09:00,40.74804236856542,-73.98117782774216,user_5739,Park Avenue Malls 34th-39th,,Mall
9d666755-1866-4364-8ef3-fb75c7c4d332,2025-04-08T09:11:00,40.86718368506404,-73.92305320407046,2025-04-08 10:48:00,40.86743958260827,-73.92276938949185,user_4836,Dyckman House Museum,4901 BROADWAY,Historic House Park
67d17c35-6d64-4d51-9b9f-afeb9606518b,2025-04-08T06:16:00,40.72173502261356,-73.9891531845691,2025-04-08 07:38:00,40.72166292875058,-73.98954899634319,user_6224,Allen Street Malls,,Mall
071c677a-3e86-4fe8-829e-89a22ef7c0cd,2025-04-08T09:20:00,40.7107933052317,-73.99316195276386,2025-04-08 11:02:00,40.71092077619828,-73.99367219694255,user_6253,Coleman Playground,166 MARKET STREET,Playground
3e36eabe-ba20-443c-9191-c6666c68326a,2025-04-08T07:29:00,40.748403638179134,-73.98827506263977,2025-04-08 09:26:00,40.748562574358544,-73.98766036401092,user_4881,Greeley Square Park,894 6 AVENUE,Triangle/Plaza
7ff1575b-8a7f-447e-ab4d-fee7af2b89e8,2025-04-08T08:21:00,40.71853323216637,-74.01468269078622,2025-04-08 09:14:00,40.718895499123,-74.01487050573273,user_5944,Battery Park City,,Community Park
b27ae9ba-611b-40ef-9dac-33a9bf715c6d,2025-04-08T09:17:00,40.76063526403037,-73.9561802568961,2025-04-08 10:08:00,40.76139936034355,-73.95627316863019,user_3347,East River Walk,,Waterfront Facility
a8da2f9b-ec43-44fb-b97f-2cd485921f5d,2025-04-08T09:16:00,40.72159322733416,-73.9974421394935,2025-04-08 10:08:00,40.7218792109955,-73.99706491235015,user_9540,Lt. Joseph Petrosino Square,,Triangle/Plaza
42418b1a-f231-4975-addb-796c50fd97f3,2025-04-08T06:30:00,40.83389012511461,-73.9423247907791,2025-04-08 07:10:00,40.83486318901008,-73.94300862988507,user_4621,,,Garden
bc73870b-bc0e-43e1-9b1c-aaf8782820a4,2025-04-08T06:47:00,40.80742548038426,-73.93430532603055,2025-04-08 08:35:00,40.80707189686755,-73.93447408253813,user_7775,Harlem River Playground,175 EAST 128 STREET,Recreational Field/Courts
0c786755-fd22-4b91-90a9-e7a57675d0b0,2025-04-08T10:03:00,40.72910998968752,-73.99773025583967,2025-04-08 11:21:00,40.730051935815936,-73.99780137152412,user_5923,Adrienne's Playground,535 LA GUARDIA PLACE,Neighborhood Park
b92ec772-f80f-4afa-92e9-f6f6395b7393,2025-04-08T08:14:00,40.72034735287187,-74.00529330188084,2025-04-08 10:03:00,40.71997963066085,-74.00561291674414,user_5508,Tribeca Park,,Triangle/Plaza
a7b75347-a1ba-40ed-8e82-7af32e2ac133,2025-04-08T06:49:00,40.80298748969231,-73.95845947997974,2025-04-08 08:46:00,40.802867015325,-73.95917214259741,user_1998,Morningside Park,,Community Park
cfc0f924-c415-48e0-93c2-ea21600d296e,2025-04-08T06:48:00,40.76383486434009,-73.9735944822208,2025-04-08 07:48:00,40.76377270650714,-73.97287151206714,user_3869,Grand Army Plaza (part of Central Park for special event layer),1 GRAND ARMY PLAZA,Triangle/Plaza
b02e83ae-a552-464a-a302-49c0c56f1db8,2025-04-08T06:15:00,40.71176985232598,-74.00749079377619,2025-04-08 07:48:00,40.71203262256603,-74.0078521609909,user_7999,City Hall Park,52 CHAMBERS STREET,Neighborhood Park
18213971-6196-4826-a4a1-77f21dfb3745,2025-04-08T07:53:00,40.70480770767549,-74.01337738570275,2025-04-08 09:37:00,40.7054003670338,-74.01240133896381,user_9120,Bowling Green,,Triangle/Plaza
a7e37f26-860c-4b3b-b0df-3da2eb953874,2025-04-08T06:39:00,40.78737531943933,-73.93879154414053,2025-04-08 07:27:00,40.78755815895299,-73.93910080301913,user_1768,Playground 103 CIII,457 East 102 Street,Neighborhood Park
ffca66ad-52d8-4e9b-8157-a9c93f945713,2025-04-08T07:15:00,40.80153894491665,-73.93158050831211,2025-04-08 08:14:00,40.80124282936189,-73.93178307509775,user_6642,Triboro Plaza,,Triangle/Plaza
aa9fbe2b-5320-459e-8a81-af1894fb4938,2025-04-08T07:30:00,40.79996367345312,-73.95090138982894,2025-04-08 08:59:00,40.79911205476546,-73.95038005983935,user_7244,"Martin Luther King, Jr. Playground",62 LENOX AVENUE,Neighborhood Park
04be3a01-51e7-489a-a8f0-1b8eeeb5bb66,2025-04-08T06:36:00,40.74176941381173,-73.97826651009748,2025-04-08 08:27:00,40.74169289878462,-73.97823654982932,user_9592,Vincent F. Albano Jr. Playground,,Playground
51f82943-25dc-41ea-95de-f70fcc0c1a4c,2025-04-08T07:29:00,40.80146853550348,-73.93163164085813,2025-04-08 08:31:00,40.800543749994624,-73.93241927299091,user_6222,Wagner Houses Pool,2435 1 AVENUE,Community Park
08168630-0712-4326-b5ed-abd6d9f1611b,2025-04-08T08:49:00,40.7046212351014,-74.01637397804369,2025-04-08 10:17:00,40.704358710300376,-74.01689050232181,user_7821,Battery Park,10 BATTERY PARK,Neighborhood Park
3b3098a2-4980-4d47-b93c-94d245cf2299,2025-04-08T08:10:00,40.79680657631009,-73.94660196697816,2025-04-08 09:12:00,40.79638073037529,-73.94735692316,user_7688,,1673 MADISON AVE.,Garden
858808fd-99e9-40d0-88f0-ac0b6156b916,2025-04-08T10:38:00,40.79655682490887,-73.94553089763691,2025-04-08 12:33:00,40.79684615784802,-73.94563170561293,user_3444,,95 E. 111 STREET,Garden
c1e0bafe-7258-4413-a829-80343ab532e3,2025-04-08T06:49:00,40.79668243922151,-73.94669234559866,2025-04-08 07:20:00,40.79763717628657,-73.94741059032864,user_5913,,1673 MADISON AVE.,Garden
6e82d7b1-b41a-4987-86aa-4e122e576ed6,2025-04-08T07:19:00,40.76405091326421,-73.99244048209601,2025-04-08 08:48:00,40.76323150627224,-73.99333927151241,user_7167,,705 10 Avenue,Undeveloped
e568e780-a5da-4984-978a-4c34f17225f1,2025-04-08T06:37:00,40.72031601562136,-73.99942670233573,2025-04-08 07:43:00,40.72050417525862,-73.99853593255033,user_4012,,142 Grand Street,Neighborhood Park
fbac43b8-cec0-45dd-be79-8d8406882e84,2025-04-08T06:59:00,40.807740699792085,-73.95042032246141,2025-04-08 08:55:00,40.80750966474525,-73.94969199476068,user_9813,Joseph Daniel Wilson Garden,219-225 WEST 122 STREET,Garden
00817054-53c6-4b8b-9f20-4e60ac89f571,2025-04-08T08:36:00,40.72510979095112,-73.97857996413917,2025-04-08 10:15:00,40.72527044976594,-73.97874369465251,user_8758,,339 EAST 8 STREET,Garden
d154e467-4f6e-4ecf-a166-05eefce764d5,2025-04-08T09:25:00,40.72504443670819,-73.97828779475543,2025-04-08 10:15:00,40.72595289966164,-73.97736242305095,user_4948,,143 AVENUE C,Garden
dcb7404f-4ef5-4175-8020-abb33e4e2e0d,2025-04-08T07:04:00,40.76168292799088,-73.97066054945262,2025-04-08 07:43:00,40.76216077008185,-73.96985592779846,user_4692,Park Avenue Malls 57th-59th,,Mall
b34d1267-a764-4a4a-8846-2ec97fe64c4e,2025-04-08T10:44:00,40.77326176870402,-73.98307727476411,2025-04-08 12:10:00,40.77234381413172,-73.98245031907123,user_5927,Lincoln Center Plaza,60 COLUMBUS AVENUE,Triangle/Plaza
9b393311-5916-4cb2-a9af-2a9a9ca9b6ea,2025-04-08T07:06:00,40.77210130857536,-73.98398490449247,2025-04-08 08:20:00,40.772919408488505,-73.98311740142198,user_3365,Damrosch Park,60 LINCOLN CENTER PLAZA,Community Park
a50201b6-18a5-426d-a7d3-3dc2dcdfcbd2,2025-04-08T08:54:00,40.71055222263081,-73.98037777399468,2025-04-08 10:39:00,40.71069553600372,-73.97993551713704,user_8586,John V. Lindsay East River Park,,Community Park
02d3945d-8218-4f19-ba7b-fcb0dc9984ae,2025-04-08T10:51:00,40.809874482557625,-73.94277704284598,2025-04-08 11:59:00,40.80925096148776,-73.94339737464352,user_1944,Rev. Linette C Williamson Memorial Park,52 WEST 129 STREET,Garden
7dc16850-8288-4527-ab12-40cd6b8636ca,2025-04-08T06:50:00,40.72295590761859,-73.98082609012458,2025-04-08 08:41:00,40.72316591928673,-73.98150740530079,user_7761,,,Garden
953330b1-3d7f-46bc-a936-53c724b1e5e8,2025-04-08T10:50:00,40.73685448889736,-74.00113631755657,2025-04-08 12:14:00,40.736857223501104,-74.00014437873438,user_7824,,76 GREENWICH AVENUE,Triangle/Plaza
f9d09239-3955-40ef-b576-fead7e12f33b,2025-04-08T06:22:00,40.80958808047778,-73.94597694244223,2025-04-08 08:20:00,40.81050352519552,-73.94604331220675,user_9683,,,Garden
cf30f1af-60b8-4977-9b02-f92cbc5a417e,2025-04-08T10:27:00,40.71972956875905,-73.98387235417637,2025-04-08 11:29:00,40.71963061497708,-73.98311420284917,user_3196,,137 ATTORNEY STREET,Garden
378d991e-df7d-43e7-942e-903b972bb7e7,2025-04-08T08:04:00,40.81471924751511,-73.94342611359905,2025-04-08 09:32:00,40.81534118113776,-73.94343137305295,user_7363,,197 WEST 134 STREET,Garden
3310d027-0e2e-448c-ba7e-10bbb6b6690a,2025-04-08T10:41:00,40.813830279617534,-73.94324537217064,2025-04-08 11:49:00,40.81450503397403,-73.94406527398056,user_4978,,,Garden
89117368-9aed-48a2-a3cc-fa1bc3b52823,2025-04-08T08:00:00,40.80103498225307,-73.95625740881648,2025-04-08 08:55:00,40.80199975341526,-73.95647092444825,user_5177,,237 WEST 111 STREET,Garden
635ff8e5-3e5d-4356-9a19-74903c35a52b,2025-04-08T09:52:00,40.74178064653992,-73.99615101159142,2025-04-08 11:11:00,40.74094930480397,-73.99623655030705,user_4331,,140 WEST 20 STREET,Playground
89f23610-5f09-454b-9749-4e90dfe70275,2025-04-08T09:06:00,40.84163583646026,-73.93767304280274,2025-04-08 10:37:00,40.84192809064255,-73.93819158552141,user_6411,Audubon Playground,550 WEST 170 STREET,Jointly Operated Playground
a1285660-8ea0-4e87-8aea-007fb58d7b2b,2025-04-08T09:23:00,40.79588242630036,-73.9684607135703,2025-04-08 10:06:00,40.79496071055276,-73.96829402534632,user_2295,Happy Warrior Playground,163 WEST 97 STREET,Jointly Operated Playground
d15a5f52-5fc9-4e15-95be-133a04e161b9,2025-04-08T09:45:00,40.80321851657239,-73.95441182839596,2025-04-08 10:45:00,40.80363375998103,-73.9553145121301,user_8369,Null,227 WEST 115 STREET,Garden
25950917-a340-4fbf-8e31-05dea67a46df,2025-04-08T07:27:00,40.80020263155647,-73.94230650411055,2025-04-08 08:45:00,40.80118460360177,-73.9427437914338,user_7079,Null,1665 PARK AVENUE,Garden
2ad7a0db-4ac3-42da-aebf-abcdb58d615d,2025-04-08T07:46:00,40.71057356860356,-73.98042162941599,2025-04-08 09:29:00,40.7106217057099,-73.98022659187397,user_2514,Pier 42,42 SOUTH STREET,Waterfront Facility
9eae704e-fe2f-4e50-93e2-ded2a50dedba,2025-04-08T10:41:00,40.81132419344457,-73.95423114697054,2025-04-08 11:56:00,40.81154380425721,-73.95354544767672,user_9775,Roosevelt Triangle,,Triangle/Plaza
eb2d2f29-af3c-4838-b343-9b731ae0f270,2025-04-08T08:39:00,40.78931792033098,-73.97196443282706,2025-04-08 10:22:00,40.78904571625035,-73.97161939161954,user_4120,St. Gregory's Playground,136 WEST 90 STREET,Playground
936d9c18-9b7a-430f-93ce-44f0d4798d17,2025-04-08T10:49:00,40.812623856402375,-73.93920593381904,2025-04-08 11:56:00,40.81345972998061,-73.93963443705616,user_1844,Hansborough Recreation Center,35 W. 134 STREET,Buildings/Institutions
dff451fb-130a-42be-b6b3-f2deb988e23b,2025-04-08T09:29:00,40.74275844273813,-73.98677782187565,2025-04-08 11:28:00,40.74253327585718,-73.98776146706375,user_5398,Madison Square Park,2 MADISON AVENUE,Neighborhood Park
b4991ab6-ee79-471e-a86b-925f5094e620,2025-04-08T09:52:00,40.7199972726132,-73.99303393306414,2025-04-08 10:59:00,40.72054620219035,-73.9938189388954,user_7179,Schiff Mall,,Mall
325147be-72c9-4395-9336-fe04f58f9f85,2025-04-08T10:17:00,40.80042702693887,-73.94399726618308,2025-04-08 10:49:00,40.80078482237999,-73.94472939629509,user_1647,Peaceful Valley Garden,1781 MADISON AVENUE,Garden
9a8fa24b-09a2-4a68-a1d1-be287b106f3c,2025-04-08T08:54:00,40.729245859386495,-73.98347493415832,2025-04-08 10:48:00,40.72835059042157,-73.98394598835874,user_2192,Lower East Side Playground,404 EAST 12 STREET,Jointly Operated Playground
4d04fe29-4af2-4ad8-ab44-7fb244012d42,2025-04-08T07:53:00,40.813578713955934,-73.9434157261838,2025-04-08 09:13:00,40.81384048710482,-73.94368417090425,user_4082,Margrichante Garden,,Garden
1abfa333-f67a-4189-aad1-cb9a91660d0e,2025-04-08T06:17:00,40.78926447950343,-73.94364304666648,2025-04-08 07:22:00,40.78893377819795,-73.94383653852225,user_4555,Blake Hobbs Playground,1851 3 AVENUE,Neighborhood Park
c9c2e67d-e4d6-47fb-8646-893b4dbd24d4,2025-04-08T09:15:00,40.704624571098925,-74.00943849246845,2025-04-08 09:46:00,40.70428395260916,-74.01034800767943,user_8854,The Queen Elizabeth II September 11th Garden,,Triangle/Plaza
b457e21d-94fb-459a-8453-c5f42a403787,2025-04-08T09:36:00,40.80352366731967,-73.93085595061291,2025-04-08 11:18:00,40.80363959374451,-73.93175363523814,user_4422,Harlem River Park,,Triangle/Plaza
968180c0-c527-475b-97fd-d2a7b5cedde5,2025-04-08T10:42:00,40.803847529854295,-73.93127291047392,2025-04-08 12:39:00,40.80362065826374,-73.9311492767436,user_6455,Harlem River Park,,Triangle/Plaza
c68b389a-8a86-49f3-9c36-3008d639145c,2025-04-08T09:21:00,40.80491104723225,-73.9319261246103,2025-04-08 09:57:00,40.80441503880218,-73.93220107705841,user_5967,Crack Is Wack Playground,,Playground
0ba9ecae-cc48-499d-9d9c-22f1dfaad709,2025-04-08T06:31:00,40.80802669412079,-73.93460087596726,2025-04-08 08:18:00,40.80872982664076,-73.93502367257318,user_1251,Harlem River Park,,Triangle/Plaza
9a8c2eaf-d8ee-4913-b484-8e9603daa66a,2025-04-08T08:11:00,40.726809397392834,-74.003388020034,2025-04-08 09:44:00,40.72773821745015,-74.00361532238404,user_4470,Father Fagan Park,,Triangle/Plaza
dcbe5903-addc-4124-a72f-89eb9e33131a,2025-04-08T09:13:00,40.719409007657376,-73.9767598668579,2025-04-08 10:19:00,40.719614409284695,-73.97685915809663,user_4113,Wald Playground,,Jointly Operated Playground
46edddf5-2515-4bba-adc8-9a8796c6b3ab,2025-04-08T08:51:00,40.71208655598404,-73.99771196925718,2025-04-08 09:50:00,40.71138730263851,-73.99761225507815,user_2922,Playground One,,Jointly Operated Playground
008edd74-f30c-4d30-89cd-97411bca2c54,2025-04-08T08:21:00,40.71498948647707,-73.97963918741115,2025-04-08 10:08:00,40.714152490451966,-73.97898856477524,user_8846,Sidney Hillman Playground,297 DELANCEY STREET,Jointly Operated Playground
31fa4051-8f5a-43de-92a1-74b67ca63528,2025-04-08T08:56:00,40.81184552631016,-73.93682693707335,2025-04-08 10:11:00,40.81217275052217,-73.93658045391606,user_4974,Abraham Lincoln Playground,,Community Park
a02fb40f-b5d7-4a2b-9f00-0b3f9d172426,2025-04-08T10:44:00,40.73012511025231,-73.98676157203775,2025-04-08 11:42:00,40.73095860316242,-73.9865394857554,user_4350,Abe Lebewohl Park,,Triangle/Plaza
1ba71a2f-c70a-4e31-94a8-9de8cf8e1b07,2025-04-08T08:35:00,40.72966821434311,-73.99660685351029,2025-04-08 10:26:00,40.72928867781821,-73.99734952672891,user_7498,Washington Square Park,3 WASHINGTON SQUARE N,Neighborhood Park
7bdfd760-a908-40b5-bde9-c41b49c2076c,2025-04-08T06:33:00,40.86568705246321,-73.92774226568335,2025-04-08 07:27:00,40.86599916189928,-73.9285489027113,user_4921,Lt. Wm. Tighe Triangle,236 DYCKMAN STREET,Triangle/Plaza
5a97965d-4514-4fdb-9e56-0dd93d023aa1,2025-04-08T07:05:00,40.711127173786856,-73.98655499326335,2025-04-08 08:54:00,40.71145144410072,-73.9868085965907,user_6269,Cherry Clinton Playground,,Playground
e1e9cc2d-626d-4e8d-be0b-2c921ea3aec1,2025-04-08T07:46:00,40.80262216166708,-73.9527206629128,2025-04-08 08:48:00,40.80188006498362,-73.95174708758393,user_5637,Samuel Marx Triangle,,Triangle/Plaza
12f1972c-ab46-441a-bb49-be15d921e026,2025-04-08T09:31:00,40.80105746904783,-73.93847003371262,2025-04-08 11:27:00,40.801475137076565,-73.93835437003608,user_7236,Harlem Art Park,,Neighborhood Park
547918d4-7b58-4635-abc8-562be5b315b0,2025-04-08T10:48:00,40.81729786641661,-73.93881087687468,2025-04-08 12:42:00,40.81646730444061,-73.93907966412826,user_8639,Fred Samuel Playground,,Playground
98c63673-a4e0-40e4-a6b3-b26f215c84ae,2025-04-08T07:44:00,40.72780079024849,-73.99605200976539,2025-04-08 09:41:00,40.72791863438867,-73.99676347504665,user_9743,Mercer Playground,1 WASHINGTON SQ VLLGE,Playground
1cb298dd-ca42-43f3-9c6c-79ca5bcb4448,2025-04-08T09:41:00,40.85197590537389,-73.93075663162118,2025-04-08 10:28:00,40.85226289190061,-73.93055170571886,user_6886,West 186th Street Basketball Court,556 WEST 186 STREET,Recreational Field/Courts
d4d9e6b2-4194-46bf-a302-14ca50bb45e5,2025-04-08T09:28:00,40.72996116861064,-74.00216440065645,2025-04-08 11:18:00,40.72961812171915,-74.0023616264879,user_6053,Father Demo Square,,Triangle/Plaza
cd72bd06-6ffd-4ce2-aa3c-7cf3c0f9f576,2025-04-08T06:05:00,40.73531491561487,-74.00168485970386,2025-04-08 06:47:00,40.73457050314308,-74.00260434989154,user_5285,McCarthy Square,,Triangle/Plaza
2cecf61f-9d4c-4c58-b3d4-1d191bf1d247,2025-04-08T08:14:00,40.70216497414863,-74.00998903119358,2025-04-08 10:04:00,40.70257063589294,-74.01091120326109,user_6892,Vietnam Veterans Plaza,24 SOUTH STREET,Triangle/Plaza
4beb39ea-dc5f-4f3f-9e84-6ec5deb9baff,2025-04-08T09:44:00,40.70793867190148,-74.00374111207715,2025-04-08 11:36:00,40.70883288915032,-74.0033139283845,user_9401,Pearl St Playground,,Playground
fe7bc3da-2256-4cfb-b1f4-f38d1d227b73,2025-04-08T07:19:00,40.85137541410039,-73.94136391242778,2025-04-08 07:54:00,40.85236974232632,-73.94075598071738,user_9147,Plaza Lafayette,,Triangle/Plaza
fcd67c19-282e-4552-9b37-e690b3c72bde,2025-04-08T10:23:00,40.77728875490448,-73.98227835291218,2025-04-08 11:32:00,40.77811365087539,-73.98223968749151,user_8635,Sherman Square,,Triangle/Plaza
305cce3e-7c02-49eb-9fb6-c62224f30375,2025-04-08T09:35:00,40.714135039057965,-73.99001995402244,2025-04-08 11:01:00,40.713321944988095,-73.99072207269329,user_2615,Staraus Square,,Triangle/Plaza
a3d19a48-fdf2-4a74-9dad-df1166f97bd4,2025-04-08T10:22:00,40.7092719253789,-73.99612263083613,2025-04-08 10:56:00,40.70961283745906,-73.99533636745197,user_8692,Catherine Slip Malls,,Mall
7d04b877-fc71-4ecf-99a7-cde56150a7f4,2025-04-08T09:47:00,40.7256907407324,-74.01078297167567,2025-04-08 11:31:00,40.72570771770525,-74.01150340970412,user_6246,Canal Park,,Neighborhood Park
5d5496b1-6ee0-4451-8c57-e95f1adaf68c,2025-04-08T10:21:00,40.73708349257578,-74.00558016086472,2025-04-08 11:37:00,40.73611995365136,-74.00471742339366,user_4328,Abingdon Square,,Triangle/Plaza
b93a3fec-0c18-4660-9aa1-6b06cc3dda73,2025-04-08T08:44:00,40.71662827233153,-73.97674155822914,2025-04-08 09:30:00,40.716246004471664,-73.97710449816562,user_7073,Baruch Playground,288 DELANCEY STREET,Recreational Field/Courts
b4c35fdd-c0c1-445f-ba13-4a12c39a6c39,2025-04-08T09:17:00,40.786771828481626,-73.94339642114842,2025-04-08 09:58:00,40.78767416710882,-73.9436105119727,user_6126,Harlem RBI,313 EAST 100 STREET,Recreational Field/Courts
2251d4b3-b55e-47fc-9a07-783a9610ddd5,2025-04-08T08:16:00,40.71632572475653,-74.01217155257838,2025-04-08 09:23:00,40.7160091894468,-74.01193855160344,user_7781,Tribeca Dog Run,114 WARREN STREET,Recreational Field/Courts
e4e75bbb-09ad-4d2a-a510-de96ef27f735,2025-04-08T07:07:00,40.71237532065285,-73.98441469542125,2025-04-08 08:18:00,40.71290763306819,-73.98372949156652,user_1749,Lillian D Wald Playground,356 CHERRY STREET,Recreational Field/Courts
89de9463-20bf-47ca-92eb-e5385da6e1a8,2025-04-08T07:20:00,40.72847639700929,-73.99089146557496,2025-04-08 08:43:00,40.72786040747662,-73.9907040162637,user_4625,Cooper Triangle,,Triangle/Plaza
f4be9e30-aa0b-4f5b-bdaa-07d7a1a0c6a0,2025-04-08T06:47:00,40.73344595067298,-74.00253687676795,2025-04-08 07:39:00,40.73444590391519,-74.00252224679555,user_3390,Christopher Park,,Triangle/Plaza
5b1d15e8-4211-4ad5-aeb1-d104a5810307,2025-04-08T10:48:00,40.80366735325539,-73.95250303562699,2025-04-08 11:43:00,40.80297724360128,-73.95248360742549,user_1265,A Philip Randolph Square,,Triangle/Plaza
d961aa69-e279-4a25-8c9d-f64d30446b6c,2025-04-08T07:12:00,40.7716023403785,-73.98243756779853,2025-04-08 07:58:00,40.77119392458181,-73.9824578744944,user_5272,Dante Park,,Triangle/Plaza
4d66c97e-f663-4a8a-b3d8-a783941d9a6b,2025-04-08T07:47:00,40.71471132298128,-73.98365299179076,2025-04-08 09:26:00,40.71528756332862,-73.98352714326947,user_7841,Ahearn Park,,Triangle/Plaza
b9eed593-ae93-4457-ad0a-69a398ba4e9a,2025-04-08T09:17:00,40.728496707238754,-74.0018714077467,2025-04-08 10:33:00,40.7285120866642,-74.0019216225467,user_5836,William F. Passannante Ballfield,244 6 AVENUE,Recreational Field/Courts
3192a72f-cfd7-4ab8-b0e2-90b405e66037,2025-04-08T10:48:00,40.81802703527835,-73.94740229194849,2025-04-08 12:25:00,40.81810657679517,-73.94836901803748,user_3497,Dorrance Brooks Square,,Triangle/Plaza
9caf9b80-4823-4498-9b36-d899716ceefb,2025-04-08T10:38:00,40.7170551378239,-74.00926104306279,2025-04-08 12:12:00,40.7175324258299,-74.00959856387564,user_4214,Duane Park,,Triangle/Plaza
2ded2e3c-ebda-4287-b5bf-dfd2ea1df9c0,2025-04-08T08:06:00,40.82691909838984,-73.94283754855454,2025-04-08 09:10:00,40.826972161648925,-73.94361833937555,user_6404,Donnellan Square,,Triangle/Plaza
b9774fd7-8129-4965-96df-ebb383e12315,2025-04-08T07:18:00,40.85581255749638,-73.93171714763652,2025-04-08 08:09:00,40.85613641597112,-73.93188406709766,user_4768,Amelia Gorman Park,,Neighborhood Park
67819221-695b-477d-bed4-e190bcfc4d5a,2025-04-08T07:23:00,40.82693309906343,-73.93547590292454,2025-04-08 08:25:00,40.82768588460852,-73.9358605472571,user_7223,Brigadier General Charles Young Triangle,,Triangle/Plaza
3a779fd4-fb07-49f2-85c6-e0657854efea,2025-04-08T07:19:00,40.80968275422374,-73.95326774429552,2025-04-08 08:50:00,40.80991881715473,-73.95247021008714,user_5026,Hancock Park,,Triangle/Plaza
0ccc4718-3517-4898-a302-63084780e658,2025-04-08T06:45:00,40.78667325504747,-73.95251968347203,2025-04-08 07:52:00,40.78686774792961,-73.95177548524379,user_9180,Park Avenue Malls 59th-97th,,Mall
f48d49e3-9220-4f3a-b9da-fff951eaa847,2025-04-08T10:08:00,40.73881065533494,-74.00257386380441,2025-04-08 11:21:00,40.73811916085758,-74.0023153428432,user_6530,Jackson Square,,Triangle/Plaza
cb667445-238b-4402-9b6e-4e5c3bcc7602,2025-04-08T08:02:00,40.8260242260276,-73.93500572116102,2025-04-08 08:46:00,40.82538591796194,-73.93481190192911,user_5216,Percy E. Sutton Playground,,Neighborhood Park
e27ee3d7-9f5f-433a-b666-bc26725a21ce,2025-04-08T06:35:00,40.76122986516597,-73.96408192992064,2025-04-08 08:04:00,40.761615556447694,-73.96455086904666,user_9005,Tramway Plaza,,Triangle/Plaza
74ccbeac-69e3-4515-a492-1d0ca945a13e,2025-04-08T08:44:00,40.80026634044721,-73.9577346065369,2025-04-08 09:23:00,40.80051582140712,-73.95742342459255,user_9037,Central Park,1000 5 AVENUE,Flagship Park
6b958157-621d-4231-8b50-2e0b13d6b0e2,2025-04-08T07:40:00,40.829887513392976,-73.94194196115289,2025-04-08 08:28:00,40.830692825358405,-73.94099784742484,user_8550,Harris Garden,,Garden
53f7c264-19e5-4261-b177-aa3fb7bc31b6,2025-04-08T09:06:00,40.83151329651816,-73.94670396093788,2025-04-08 10:04:00,40.83195566251377,-73.94654701227343,user_3756,Broadway Malls 135th-156th,,Mall
3ea0394c-7a23-42c6-b58f-ec5f80ab80fa,2025-04-08T06:36:00,40.75174543792048,-74.00193926176063,2025-04-08 08:32:00,40.75083282277639,-74.00248417531003,user_6770,The High Line,,Community Park
d3db7bb4-8839-48e6-9965-804c2616bdae,2025-04-08T08:30:00,40.783796468352925,-73.94261918171239,2025-04-08 10:26:00,40.78352506718119,-73.94351647138215,user_3773,East River Esplanade 90th-125th,,Waterfront Facility
e985cccf-0a7b-48a1-8c12-6702f96c101b,2025-04-08T09:28:00,40.8461667431899,-73.93211971341479,2025-04-08 10:48:00,40.84660591453748,-73.93215881584736,user_3293,Highbridge Park,506 EDGECOMBE AVENUE,Community Park
d02b83b9-b0b0-48cc-bf3e-c36d75fb6b53,2025-04-08T08:11:00,40.74990449647918,-73.98781632794064,2025-04-08 09:52:00,40.750843673686,-73.98776786327538,user_9954,Herald Square,1 HERALD SQUARE,Triangle/Plaza
76022668-cf28-4492-8793-1625d452a862,2025-04-08T06:16:00,40.79086407414979,-73.92594504670001,2025-04-08 07:32:00,40.79108526499404,-73.92550268102951,user_9000,Randall's Island Park,,Flagship Park
8eeac755-083c-4b88-9856-0233c804800b,2025-04-08T09:07:00,40.805215418788734,-73.95105698363615,2025-04-08 09:48:00,40.80572020111896,-73.95050777137648,user_4015,Adam Clayton Powell Jr. Malls,,Mall
9dfc58ea-4d50-4bd0-bc9f-165efbf48f1a,2025-04-08T06:25:00,40.83846673927283,-73.94162339331957,2025-04-08 07:45:00,40.8390343399917,-73.94186301264695,user_9882,Broadway Malls 156th-168th,,Mall
84e500b2-b2ea-4262-aff1-89b38c981c77,2025-04-08T09:04:00,40.73573350806721,-73.97520910500639,2025-04-08 09:35:00,40.735201513955886,-73.97456578242414,user_1962,Asser Levy Playground,384 ASSER LEVY PLACE,Community Park
06a2b842-9053-4ee7-84c5-ae6eaec8d867,2025-04-08T10:40:00,40.869987148661984,-73.92093487400602,2025-04-08 11:43:00,40.86946548565648,-73.92145048088574,user_9584,Inwood Hill Park,269 DYCKMAN STREET,Community Park
c3b62866-d9c9-43ce-b1be-2d588d6779fc,2025-04-08T06:09:00,40.72006266455734,-73.97974563740868,2025-04-08 07:47:00,40.72099385783173,-73.97960049686587,user_1554,Hamilton Fish Park,128 PITT STREET,Community Park
6ac01cde-4332-4482-9027-4d3da0b6f07d,2025-04-08T07:51:00,40.79297143197103,-73.9768661390178,2025-04-08 08:36:00,40.79354017245021,-73.97646509719551,user_2217,Joan Of Arc Park,,Neighborhood Park
30cac68f-c186-4571-aa56-956a8afa1bf8,2025-04-08T10:19:00,40.80808480069773,-73.9638091050991,2025-04-08 11:47:00,40.808892749374,-73.96442753644345,user_1794,Broadway Malls 110th-122nd,,Mall
71e94e9b-c0e3-406c-94a8-3e3dcf0c8e03,2025-04-08T06:15:00,40.77699912103216,-73.94198090658357,2025-04-08 07:32:00,40.7763871533846,-73.9420988294512,user_1104,Carl Schurz Park,97 EAST END AVENUE,Neighborhood Park
6bcb35c6-35bc-4789-986b-4c75a8f18156,2025-04-08T06:35:00,40.83452271167547,-73.94991573837572,2025-04-08 08:31:00,40.8348793253256,-73.95007817777939,user_7756,Recreational Area,,Community Park
65f6e381-945d-45d7-b36b-6b03ee0bcf1c,2025-04-08T09:38:00,40.749043614703325,-73.96998665551673,2025-04-08 11:34:00,40.74918445349005,-73.97016073529716,user_3252,Ralph Bunche Park,741 1 AVENUE,Triangle/Plaza
547fa2e5-bfcd-4c2e-a7ee-0c01c5e8418c,2025-04-08T10:50:00,40.79624973770972,-73.94742443828993,2025-04-08 11:53:00,40.79613093251674,-73.94801665492453,user_4791,110th Street Block Association Garden,1651 MADISON AVENUE,Garden
a69cae5f-4b2f-4220-a6f7-81d217d79111,2025-04-08T10:14:00,40.73387465415536,-73.98284750488925,2025-04-08 11:58:00,40.73441353125931,-73.98284386588003,user_2113,Stuyvesant Square,297 2 AVENUE,Neighborhood Park
aaf2e2c1-3b73-429e-bee4-c888c08110fb,2025-04-08T10:24:00,40.81782527446418,-73.9519755363393,2025-04-08 11:42:00,40.81838152253869,-73.95175258021952,user_3474,Annunciation Park,1501 AMSTERDAM Av,Playground
5954e467-783c-4645-8287-4cc8c2337841,2025-04-08T09:58:00,40.71518119983205,-73.99974544634283,2025-04-08 11:49:00,40.71518701321503,-73.99980223541509,user_1149,Columbus Park,55 MULBERRY STREET,Playground
c1b6e793-fee5-4fdb-96f4-1bbf6b6bdaca,2025-04-08T09:19:00,40.82824916353913,-73.9394109472362,2025-04-08 10:36:00,40.828086485192586,-73.9387141932465,user_4583,Jackie Robinson Park,319 W 145 STREET,Neighborhood Park
186f8d88-4257-44e7-b440-bd9161967557,2025-04-08T10:27:00,40.75069828559123,-74.00177474199378,2025-04-08 11:10:00,40.75002240193772,-74.0013199377959,user_9285,Chelsea Park,294 10 Av,Playground
768537fa-7f73-4b6b-87d6-3d0a2e898ca3,2025-04-08T08:36:00,40.85223814809101,-73.93792999681882,2025-04-08 10:32:00,40.85163754355389,-73.93751844635452,user_8471,Bennett Park,521 FT WASHINGTON Av,Neighborhood Park
0249ace9-26f4-4196-8526-3bd599ddaf63,2025-04-08T10:03:00,40.73516883702652,-73.99022507209253,2025-04-08 11:02:00,40.73537816392167,-73.99018770566941,user_7114,Union Square Park,69 EAST 17 STREET,Community Park
0a58d6ee-a988-4fb6-a4cd-9a165069f33e,2025-04-08T10:47:00,40.72236375079557,-74.00485666946543,2025-04-08 12:17:00,40.72310975463569,-74.00473489591961,user_1990,Grand Canal Court,,Recreational Field/Courts
0b18ff51-35e6-4c72-842b-960126cec478,2025-04-08T06:48:00,40.75509463503467,-74.00065580747142,2025-04-08 07:21:00,40.75419899464119,-73.9996595617346,user_8916,,534 WEST 35 STREET,Neighborhood Park
83650373-6ddf-409d-b196-70c9ad6ebd0c,2025-04-08T07:40:00,40.83826495576976,-73.9391221328704,2025-04-08 09:29:00,40.83822613708068,-73.93916539090371,user_8993,McKenna Square,,Triangle/Plaza
b194d361-5b51-429c-b142-b46d30600d97,2025-04-08T07:16:00,40.72777161571617,-73.99187934177678,2025-04-08 08:57:00,40.72751403992938,-73.9921256922244,user_1257,,35 East 4 Street,Neighborhood Park
574d87bb-682a-4ce2-9369-98d6418a1a73,2025-04-08T06:10:00,40.70588237151907,-74.00387659936987,2025-04-08 07:21:00,40.70675095862706,-74.00296322838548,user_1108,Imagination Playground,89 SOUTH STREET,Playground
1e0d18a1-210f-4fcf-aecc-22226fc9825a,2025-04-08T07:11:00,40.80318921472864,-73.94561956933548,2025-04-08 08:59:00,40.80361201668288,-73.94570024227144,user_9719,,13 WEST 119 STREET,Garden
491c566d-a511-48d8-8e3f-8b5568f5f89a,2025-04-08T10:04:00,40.82954150909144,-73.94239466604533,2025-04-08 11:02:00,40.82957332786654,-73.94232841191618,user_7739,Sugar Hill Hope Garden,459 WEST 152 STREET,Garden
53a5e3ee-f227-4ad5-b5e0-e76f269efc3c,2025-04-08T07:00:00,40.72905105004074,-74.00642976338821,2025-04-08 08:52:00,40.72830040558466,-74.00633721694972,user_1194,,388 Hudson Street,Undeveloped
16848537-1ed9-457f-9e7e-fd4cb826161a,2025-04-08T09:28:00,40.779185194097074,-73.93880185057095,2025-04-08 10:06:00,40.778352944347816,-73.93845011341784,user_1274,Mill Rock Park,,Nature Area
6ad131da-8f52-490f-a2ad-b707b9d7084f,2025-04-08T10:30:00,40.851133454687485,-73.94444233790404,2025-04-08 12:21:00,40.85045407935598,-73.94370702909713,user_9673,Fort Washington Park,,Community Park
0adc0235-8281-487a-9b14-997614bf5128,2025-04-08T08:02:00,40.828852471726286,-73.94423739439577,2025-04-08 09:31:00,40.82875111016703,-73.94387590261663,user_5501,Carmansville Playground,1841 AMSTERDAM AV,Playground
d3cfd814-6c7c-4663-99f6-22b25500dc6a,2025-04-08T07:18:00,40.78362827238279,-73.9316174582867,2025-04-08 09:17:00,40.783654977858646,-73.93101015322647,user_9777,Wards Island Park,1 WARDS ISLAND,Recreational Field/Courts
d68f344a-c2ba-4f75-8110-a200a51fe0d0,2025-04-08T08:44:00,40.75879964348499,-73.95982612972409,2025-04-08 09:52:00,40.75946173692227,-73.96029740535752,user_5697,Queensboro Oval,405 EAST 59 STREET,Recreational Field/Courts
