,_id,START_TIME,START_LAT,START_LNG,END_TIME,END_LAT,END_LNG,USER_ID,NAME,ADDRESS,TYPE
0,65398929-9afa-4869-a34a-b879ccbd0204,2025-04-08T08:45:00,40.724634757833414,-74.00701717096757,2025-04-08 09:47:00,40.72552299517469,-74.00716859858656,user_1411,HOLLAND,Manhattan,Tourist Attraction
3,59740169-e614-4e89-8a25-1471f795ea67,2025-04-08T08:37:00,40.70960010711745,-73.9919414213091,2025-04-08 09:33:00,40.709734824104935,-73.99268580433672,user_8048,MANHATTAN,Manhattan,Tourist Attraction
11,ffe1f705-c370-4d8d-a1e6-b3362ceb6341,2025-04-08T07:10:00,40.819480548636484,-73.93314181020845,2025-04-08 08:36:00,40.819474955713545,-73.93304737160916,user_1527,145,Manhattan,Tourist Attraction
17,7eb81225-6899-4031-be37-c47c6b1e51e4,2025-04-08T10:56:00,40.75884885236805,-73.9991447596062,2025-04-08 12:22:00,40.757940789088806,-73.99909118038575,user_6366,LINCOLN,Manhattan,Tourist Attraction
20,363826bf-ee46-4c33-b730-856dbd22e15c,2025-04-08T10:19:00,40.714701275978264,-73.97581238008704,2025-04-08 12:11:00,40.71373152583531,-73.9760286755988,user_6171,WILLIAMSBURG,Manhattan,Tourist Attraction
21,0602bc5d-3a11-42aa-adc2-3191523e585c,2025-04-08T07:21:00,40.81415929950738,-73.93385155771828,2025-04-08 07:51:00,40.81339837405594,-73.93475762739146,user_1481,MADISON,Manhattan,Tourist Attraction
23,c7f44fdf-9988-4acd-bf03-5b02dc145b25,2025-04-08T07:50:00,40.84700074947195,-73.9285220601287,2025-04-08 08:54:00,40.84624045483899,-73.92821777585793,user_4640,WASHINGTON,Manhattan,Tourist Attraction
26,4bb16431-2769-41da-8e5e-cfd15108230d,2025-04-08T10:32:00,40.82803502688598,-73.93449272624562,2025-04-08 11:09:00,40.828499027092185,-73.93351966064147,user_3734,MACOMBS DAM,Manhattan,Tourist Attraction
29,7f74c88c-772d-4fba-ae15-c58017ea1aa6,2025-04-08T07:59:00,40.86295889905344,-73.91530713818614,2025-04-08 08:36:00,40.86242786185569,-73.91574316837722,user_9921,UNIVERSITY HEIGHTS,Manhattan,Tourist Attraction
34,2db4ff35-4f52-4fda-944f-8685bb77587d,2025-04-08T08:16:00,40.70804305317227,-73.99934233022464,2025-04-08 10:02:00,40.707491753225185,-73.9999400399569,user_7686,BROOKLYN,Manhattan,Tourist Attraction
36,dc3bf044-d919-4ed3-95de-123afe63748d,2025-04-08T09:13:00,40.763872690468794,-73.94662833424147,2025-04-08 10:44:00,40.763507511617156,-73.94710018759845,user_5772,ROOSEVELT IS,Manhattan,Tourist Attraction
37,5b1e18f8-c70e-435a-bc46-371ed3af2efb,2025-04-08T06:02:00,40.80312494818145,-73.92977006337374,2025-04-08 07:28:00,40.80325150460821,-73.92947212017839,user_2236,WILLIS,Manhattan,Tourist Attraction
39,f3d203a3-9bd1-4652-99bc-8bea02529ee8,2025-04-08T06:13:00,40.845657680171854,-73.92946799599785,2025-04-08 06:48:00,40.84620948099058,-73.92935410779387,user_1293,ALEXANDER HAMILTON,Manhattan,Tourist Attraction
46,2a74c54e-2444-442d-a1a3-6dc632a60731,2025-04-08T06:23:00,40.758391053852,-73.95806128277657,2025-04-08 07:46:00,40.759379740021444,-73.95720302814715,user_5266,ED KOCH QUEENSBORO,Manhattan,Tourist Attraction
50,b7ea0aa3-32d2-4eb1-8837-05fd49b0ac4a,2025-04-08T09:02:00,40.74579837599415,-73.97313755148846,2025-04-08 09:43:00,40.74507357427794,-73.97279870246125,user_2354,QUEENS MIDTOWN,Manhattan,Tourist Attraction
52,6be44167-5895-4444-9991-6205a8a58eec,2025-04-08T09:27:00,40.70211087611888,-74.01584220998345,2025-04-08 10:04:00,40.70259567106344,-74.01518945064772,user_7197,HUGH L CAREY,Manhattan,Tourist Attraction
58,a0a8367c-d888-460f-b63a-779acdda7620,2025-04-08T09:16:00,40.80083743607849,-73.92905172620442,2025-04-08 10:02:00,40.80063994232369,-73.92882722808886,user_8795,ROBERT F KENNEDY,Manhattan,Tourist Attraction
62,6f72022f-974f-4227-9602-392be4f52149,2025-04-08T10:53:00,40.87607478063343,-73.92437203526718,2025-04-08 12:38:00,40.875526659128354,-73.92395352783109,user_1503,HENRY HUDSON,Manhattan,Tourist Attraction
69,9ae52e8b-73e3-47da-a68c-80665b51bdea,2025-04-08T08:27:00,40.842360681960955,-73.93066638276323,2025-04-08 09:33:00,40.841831894217734,-73.93067758554876,user_9547,HIGH,Manhattan,Tourist Attraction
81,3aa4d43f-199e-4a05-9e48-f07beb6ffcd1,2025-04-08T10:19:00,40.77577539823907,-73.97178440451849,2025-04-08 11:41:00,40.77659995502093,-73.97230139845558,user_4949,CENTRAL PARK BOW BRIDGE,Manhattan,Tourist Attraction
82,b1a8e7f2-75f9-4727-9421-9e300d2abfcd,2025-04-08T10:39:00,40.811099151336094,-73.93351126691554,2025-04-08 12:00:00,40.81104525799431,-73.93403593194365,user_7936,METRO NORTH,Manhattan,Tourist Attraction
98,82c04a71-0c1b-4d72-985d-89dd9c7a1fa9,2025-04-08T09:33:00,40.85127859384622,-73.95054168791759,2025-04-08 11:12:00,40.85063071090393,-73.95097272639987,user_8317,GEORGE WASHINGTON,Manhattan,Tourist Attraction
102,102912df-87ef-4bdc-9e0a-7b63b9251feb,2025-04-08T06:11:00,40.783046726371474,-73.92950035145736,2025-04-08 08:00:00,40.783671503688176,-73.92934691355178,user_7597,WARDS ISLAND ANCHORAGE,Manhattan,Tourist Attraction
103,532ea617-ffbb-45aa-8b21-33c735ee1bbe,2025-04-08T10:41:00,40.78120729499119,-73.92811720244192,2025-04-08 11:55:00,40.78217569484938,-73.9281875703823,user_3534,WARDS ISLAND TOWER PEDESTAL,Manhattan,Tourist Attraction
104,786302d8-8871-4d68-a765-4f4c31ec3453,2025-04-08T08:24:00,40.7878460897682,-73.92842435832476,2025-04-08 10:20:00,40.78689813427322,-73.9289525327366,user_7947,RFK BR QUEENS PED AND BIKE PATH,Manhattan,Tourist Attraction
105,d7690f3d-e6a6-485c-84de-a9ef0e85b4ed,2025-04-08T07:12:00,40.79795621756978,-73.91953924628643,2025-04-08 08:54:00,40.79759145872868,-73.91957158601919,user_6010,RFK BRIDGE BRONX PED AND BIKE PATH,Manhattan,Tourist Attraction
109,80db5b09-38ec-4bda-bec2-8b561b6a7eda,2025-04-08T10:38:00,40.78264797336841,-73.92216558652913,2025-04-08 11:45:00,40.78206815256055,-73.92191013202286,user_8416,HELL GATE BRIDGE,Manhattan,Tourist Attraction
111,f7cc46bd-1e84-47e7-92df-1adadaef3c73,2025-04-08T08:03:00,40.8780028895429,-73.92589203152889,2025-04-08 09:40:00,40.87708254677385,-73.92580067959373,user_1789,AMTRAK,Manhattan,Tourist Attraction
114,73f2adb7-064d-4ef6-883c-9b9d86a4b8ee,2025-04-08T08:08:00,40.87646658243171,-73.924162427158,2025-04-08 08:47:00,40.87740234825303,-73.92410882176195,user_9371,HENRY HUDSON BRIDGE NB RB,Manhattan,Tourist Attraction
115,cbf22461-8d05-44ed-97dc-92ba132781f7,2025-04-08T06:49:00,40.8764871256308,-73.92413116209111,2025-04-08 08:32:00,40.87584607796143,-73.92444191764802,user_2052,HENRY HUDSON BRIDGE SB RB,Manhattan,Tourist Attraction
118,fc5d9b3f-308d-4bde-982f-34bb2256f051,2025-04-08T09:29:00,40.85124357437054,-73.95054354422797,2025-04-08 10:30:00,40.851403014517985,-73.95035853282297,user_1841,GEORGE WASHINGTON BR LOWER LEVEL,Manhattan,Tourist Attraction
119,788041c2-4f64-4780-808a-0bfc62c44801,2025-04-08T10:47:00,40.85123097024666,-73.95047951067171,2025-04-08 12:14:00,40.85127008918843,-73.9496361822212,user_9196,GEORGE WASHINGTON BR UPPER LEVEL,Manhattan,Tourist Attraction
120,986aec25-bba0-4d8b-b689-60360f386831,2025-04-08T07:40:00,40.75838361317761,-73.9580079079661,2025-04-08 09:37:00,40.75828007329029,-73.95720593900703,user_5928,ED KOCH QUEENSBORO BR UPPER RDWY,Manhattan,Tourist Attraction
121,b1f5a822-6017-45e0-a22d-be77a4e027a9,2025-04-08T09:28:00,40.75841793372376,-73.95808568715634,2025-04-08 11:13:00,40.75872322105319,-73.95804955765588,user_2471,ED KOCH QUEENSBORO BR LOWER RDWY,Manhattan,Tourist Attraction
128,f32cc2a7-2a4a-4f7c-ad2f-7ebb069be600,2025-04-08T06:11:00,40.758486812294365,-73.9580216105277,2025-04-08 06:48:00,40.75900645992539,-73.95804908858827,user_6395,KOCH BR PEDESTRIAN AND BIKE PATH,Manhattan,Tourist Attraction
130,83826123-5617-489d-92ab-9962470e85ed,2025-04-08T10:00:00,40.81958142887047,-73.93356569314234,2025-04-08 11:57:00,40.820566233200026,-73.93409284222639,user_1104,145 ST BRIDGE PED AND BIKE,Manhattan,Tourist Attraction
133,61823081-97cd-4e59-97e0-157c5ae9e83c,2025-04-08T07:45:00,40.80564228988079,-73.93454864454048,2025-04-08 08:25:00,40.80623303892313,-73.93411887536111,user_1796,3 AVE-E 128 STREET PED,Manhattan,Tourist Attraction
135,99aab4de-298b-4ad8-9c26-dca24b0c3bf4,2025-04-08T08:04:00,40.80738730455517,-73.933127752929,2025-04-08 09:31:00,40.80799314647132,-73.9338869164246,user_5099,3 AV BRIDGE PED AND BIKE,Manhattan,Tourist Attraction
136,b6068280-6304-470c-87da-349c83b88de5,2025-04-08T08:33:00,40.80748582906612,-73.93264383502428,2025-04-08 10:10:00,40.80687087286577,-73.93254872843556,user_5601,3,Manhattan,Tourist Attraction
138,77a6a2ff-4786-43c5-905e-d4e702be4b11,2025-04-08T10:57:00,40.7079895499975,-73.99925104558386,2025-04-08 12:55:00,40.70828261794377,-74.0000536509878,user_2201,BROOKLYN BRIDGE PEDESTRIAN,Manhattan,Tourist Attraction
142,e50d561e-6317-4015-8714-ba302a9fa9f7,2025-04-08T06:41:00,40.85942950137242,-73.92261177027989,2025-04-08 07:12:00,40.85845217074098,-73.92290750630144,user_5194,DYCKMAN HOUSES 10 AVE PED,Manhattan,Tourist Attraction
143,1b07e986-81bf-4811-813e-c27ec440a24c,2025-04-08T06:37:00,40.72125569962278,-73.97465434848654,2025-04-08 07:47:00,40.72173552948871,-73.97485707540925,user_2667,EAST    6 ST PED BR OVER FDR DRV,Manhattan,Tourist Attraction
144,9c5ede7e-1249-4b88-8527-f16e17fb722b,2025-04-08T06:04:00,40.85125895248109,-73.95062166945662,2025-04-08 07:47:00,40.85168260823104,-73.95041289831576,user_7717,GW BRIDGE BIKE AND PEDESTRIAN,Manhattan,Tourist Attraction
146,de8660ed-ce19-48f6-8236-b6b24dbde209,2025-04-08T08:55:00,40.82800203010812,-73.934275932126,2025-04-08 09:59:00,40.828617081563635,-73.93359686933849,user_5833,MACOMBS DAM BRIDGE PEDESTRIAN,Manhattan,Tourist Attraction
148,617095d9-c452-468e-8ea4-d71242a041c6,2025-04-08T09:49:00,40.81415212898964,-73.93382359070797,2025-04-08 11:02:00,40.81443132423857,-73.93286414197014,user_8788,MADISON AV BRDG PED & BIKE,Manhattan,Tourist Attraction
150,0976cd17-79eb-47de-b87b-8a88a5191760,2025-04-08T06:13:00,40.70964512806461,-73.99174378896677,2025-04-08 06:57:00,40.70954395413819,-73.99187195670034,user_2305,MANHATTAN BRIDGE BIKE PATH,Manhattan,Tourist Attraction
151,9c20172a-2ded-48e5-9bc4-f53b5b159a3a,2025-04-08T09:05:00,40.70959990882026,-73.99214581403187,2025-04-08 09:49:00,40.709367612579484,-73.99151261090243,user_9268,MANHATTAN BRIDGE PEDESTRIAN,Manhattan,Tourist Attraction
160,6f860256-379d-4f3a-9f59-ace884f336e9,2025-04-08T08:11:00,40.80091499526737,-73.92889625864403,2025-04-08 09:43:00,40.800821032999174,-73.92875572398131,user_3836,RFK BRIDGE PED AND BIKE,Manhattan,Tourist Attraction
161,c4942a5d-b484-49d1-86e8-039eed7769e9,2025-04-08T06:23:00,40.76374381841958,-73.94623816354101,2025-04-08 07:20:00,40.7646983382888,-73.94632902201329,user_5207,ROOSEVELT IS BR PED & BIKE,Manhattan,Tourist Attraction
167,31d19cdc-a122-45f5-b51c-19eeb2c62b0d,2025-04-08T09:34:00,40.862882465864615,-73.91536775251994,2025-04-08 11:02:00,40.86309201395189,-73.9161133103185,user_9653,UNIV HEIGHTS BR BIKE AND PED,Manhattan,Tourist Attraction
171,78fc0b8b-d038-4cd8-8f2a-2f27ce233e01,2025-04-08T08:52:00,40.84704169882364,-73.9281968358793,2025-04-08 10:44:00,40.84677536101068,-73.92748954941284,user_5052,WASHINGTON BR PED AND BIKE,Manhattan,Tourist Attraction
174,94252fcc-5d25-4e7c-bcff-d77c4ba5b97d,2025-04-08T08:05:00,40.71466267350947,-73.97583036119002,2025-04-08 08:57:00,40.71460240315523,-73.97504117122641,user_3593,WILLIAMSBURG BR BIKE AND PED,Manhattan,Tourist Attraction
176,403326e3-a201-4c73-bef8-219614dc4f54,2025-04-08T08:12:00,40.80316987794497,-73.92975595073926,2025-04-08 09:36:00,40.80398123888497,-73.92957918033375,user_3080,WILLIS AVENUE BRIDGE BIKE,Manhattan,Tourist Attraction
179,1955bfd1-614d-429e-8fd8-506b67e92654,2025-04-08T10:33:00,40.78895757034856,-73.98246961982039,2025-04-08 11:52:00,40.789510376331336,-73.98345175159382,user_5036,H HUDSON PKWY OVR RIVERSIDE PRK,Manhattan,Tourist Attraction
180,601f850a-37e3-41a3-ac31-4df4775fc3b0,2025-04-08T09:53:00,40.798186126897065,-73.97579761376278,2025-04-08 10:35:00,40.79819682866215,-73.97631489704251,user_2075,HHP SB OVER RAMP TO W   96 ST,Manhattan,Tourist Attraction
181,e874cd61-6be7-4457-aeee-6388cb311cac,2025-04-08T10:29:00,40.79604339994933,-73.97634007734891,2025-04-08 11:47:00,40.79651499813192,-73.97689799784555,user_4151,HHP NB OVER RAMP TO   96 ST,Manhattan,Tourist Attraction
182,2b0e0073-7663-4fad-b682-94f046ed9287,2025-04-08T08:35:00,40.79902913535916,-73.97493980841755,2025-04-08 10:15:00,40.79900280605225,-73.97437465839938,user_3269,HHP NB OVER RAMP FROM   96 ST,Manhattan,Tourist Attraction
183,f3fb8742-3a59-4db1-9f9d-d338ebd36571,2025-04-08T09:44:00,40.85218716976465,-73.9422593399454,2025-04-08 10:20:00,40.85184441650862,-73.94299667740565,user_4286,W 181 ST PED BRDGE OVER HHP NB,Manhattan,Tourist Attraction
184,6dd9b6e9-f323-4c1d-9f17-74c5afcacf38,2025-04-08T07:21:00,40.71114664104554,-73.9794093038636,2025-04-08 08:25:00,40.7108535732885,-73.97842684228019,user_6114,CORLEARS HOOK PARK OVERPASS,Manhattan,Tourist Attraction
185,d47b5030-164e-4209-9963-3194783c0856,2025-04-08T08:53:00,40.718810213636914,-73.97503616182371,2025-04-08 09:32:00,40.71818479226379,-73.97475671486839,user_7379,HOUSTON STREET OVER FDR DRIVE,Manhattan,Tourist Attraction
186,697028ef-4348-4bef-8b0a-df2fa5dc324e,2025-04-08T10:41:00,40.73706605321987,-73.97467227012821,2025-04-08 11:11:00,40.736968866473944,-73.97544903670425,user_4469,EAST 25 ST PED BRDGE OVER FDR DR,Manhattan,Tourist Attraction
187,e2adc847-144e-4828-828f-ac86f4bcfd04,2025-04-08T09:10:00,40.753508734087596,-73.96338119976281,2025-04-08 09:46:00,40.75340811179066,-73.96251331719041,user_5243,EAST 51 ST PED BRDGE OVER FDR DR,Manhattan,Tourist Attraction
188,22121ff4-c814-458b-bfd8-f610d66ab704,2025-04-08T10:01:00,40.76107411042474,-73.95583903638837,2025-04-08 11:47:00,40.76155979929365,-73.95504207294948,user_1650,EAST 64 ST PED BRDGE OVER FDR DR,Manhattan,Tourist Attraction
189,294c6680-c2a0-41ae-9e55-afffe889e34b,2025-04-08T10:28:00,40.765262366786935,-73.95198707143001,2025-04-08 11:09:00,40.76524357861993,-73.95255784388851,user_7798,EAST 71 ST PED BRDGE OVER FDR DR,Manhattan,Tourist Attraction
190,46f157af-703a-4720-9e48-c7348f4752e3,2025-04-08T10:31:00,40.7695425260006,-73.94831284914379,2025-04-08 11:13:00,40.768978034698684,-73.94895199808555,user_1128,EAST 78 ST PED BRDGE OVER FDR DR,Manhattan,Tourist Attraction
191,0ce06198-1758-41bb-92da-d8e90dc04740,2025-04-08T09:26:00,40.771909959440094,-73.94586892313326,2025-04-08 11:25:00,40.77183574713432,-73.94543302510662,user_9191,PRMND OV FDR BT E 81 E 90TH ST,Manhattan,Tourist Attraction
192,ee228ff6-0aa1-426c-a17a-ae8572ca639e,2025-04-08T09:11:00,40.78633802968202,-73.9390646723495,2025-04-08 09:54:00,40.78537598650599,-73.93965929818076,user_4026,EAST 103 ST PED BRDG OVER FDR DR,Manhattan,Tourist Attraction
193,6029de67-c45a-4403-9ed3-491226546d79,2025-04-08T09:46:00,40.79699996654381,-73.92929637316843,2025-04-08 10:34:00,40.796411608070926,-73.92992473847806,user_5334,EAST 120 ST PED BRDG OVER FDR DR,Manhattan,Tourist Attraction
194,f041bd9a-c79c-4f42-b462-e24cc8203f49,2025-04-08T09:42:00,40.72424708531616,-73.97321844913552,2025-04-08 11:26:00,40.72514667075991,-73.97419054986236,user_7181,10 STREET PEDESTRIAN,Manhattan,Tourist Attraction
195,23e558dc-8349-4089-b24e-c9f407c905c2,2025-04-08T09:47:00,40.75903627036983,-73.9586508194836,2025-04-08 11:11:00,40.7592358445942,-73.95952832736009,user_4074,EAST   60 ST OVER FDR DRIVE,Manhattan,Tourist Attraction
196,f8970471-a540-4b48-8a82-58ed756ac5b1,2025-04-08T09:07:00,40.803186078917186,-73.93046745777006,2025-04-08 10:21:00,40.80279088784189,-73.93044352091272,user_7490,HRD OV E 127 ST RMP TO/FR HRD NB,Manhattan,Tourist Attraction
197,cddb5ab6-6292-4a3a-ba64-711433071535,2025-04-08T08:23:00,40.70666003999598,-73.99020718991814,2025-04-08 09:43:00,40.70617510667391,-73.99056616968286,user_6462,MANHATTAN BRIDGE LOWER LEVEL,Manhattan,Tourist Attraction
198,d50f0e6a-f41e-42be-b2b5-ffe8152d094f,2025-04-08T07:06:00,40.706362050102875,-73.99015938948921,2025-04-08 08:16:00,40.70706979320105,-73.99002444439787,user_9535,MANHATTAN BRIDGE UPPER LEVEL,Manhattan,Tourist Attraction
199,00ec4a0d-77c6-48fd-815b-70d69c01a2be,2025-04-08T09:29:00,40.75661779985293,-73.95416958994653,2025-04-08 11:22:00,40.757083982332475,-73.95334596475138,user_3420,ED KOCH QUEENSBORO BRG LOWER LVL,Manhattan,Tourist Attraction
200,cf709e19-e319-4a38-b9e2-8003477b4cd2,2025-04-08T07:54:00,40.7567170303991,-73.9539018697039,2025-04-08 09:38:00,40.75752632837463,-73.95372971463712,user_9675,ED KOCH QUEENSBORO BRG UPPER LVL,Manhattan,Tourist Attraction
201,259bf931-4544-46a9-ace7-7a71d65097f7,2025-04-08T07:00:00,40.87397452529884,-73.91062127206371,2025-04-08 08:45:00,40.87300260478612,-73.91067301659733,user_8017,BWAY BR OVR HARLEM RIV VEHICULAR,Manhattan,Tourist Attraction
202,13774948-d58c-4921-a714-470993177ac3,2025-04-08T10:24:00,40.786051012439366,-73.93707089592537,2025-04-08 11:01:00,40.785385725404915,-73.93684097286408,user_8668,WARDS ISLD PED BR OVR HARLEM RIV,Manhattan,Tourist Attraction
203,8a63d885-32e4-4d9d-83e6-4e531f55c7a6,2025-04-08T06:00:00,40.75483425993251,-74.00268009957013,2025-04-08 07:01:00,40.75535274601974,-74.00191130004923,user_6443,11 AVE VIADUCT OV LIRR W SD YD,Manhattan,Tourist Attraction
204,d1e1c058-f796-4702-b3eb-3d6a6fd83a78,2025-04-08T06:11:00,40.860856610327,-73.93248182014078,2025-04-08 07:47:00,40.85996114364315,-73.93250064456534,user_9202,MARGT CRBN DR OV PED PTH NR CAFE,Manhattan,Tourist Attraction
205,afec443e-e754-46c1-84b9-2333ad9f98fb,2025-04-08T06:39:00,40.862599130042945,-73.93295648010997,2025-04-08 08:26:00,40.86328461642375,-73.93271546824546,user_9245,MARGRTCRBN DR OV PDPTH NR N ENTR,Manhattan,Tourist Attraction
206,6df063a5-31d7-497b-93af-52df88606c66,2025-04-08T08:47:00,40.75712695239721,-73.99924269943536,2025-04-08 09:34:00,40.757836664496594,-73.99878968738011,user_4094,W 37 ST OV AMTRAK 30 ST BRANCH,Manhattan,Tourist Attraction
207,f9a925b1-e6d2-47f7-9a39-cc7dbf1b9784,2025-04-08T06:56:00,40.757606278717084,-73.998477790556,2025-04-08 08:46:00,40.75778893678075,-73.99840411699638,user_7640,W 38 ST OV AMTRAK 30 ST BRANCH,Manhattan,Tourist Attraction
208,bbfd8aee-7de0-4cab-a20c-376bd58c1f0b,2025-04-08T08:34:00,40.758198896546354,-73.99801212807859,2025-04-08 09:45:00,40.758002146085666,-73.99899802607473,user_6764,W 39 ST OV AMTRAK 30 ST BRANCH,Manhattan,Tourist Attraction
209,b2dddd7a-d8a4-4dd8-a3b4-804851cbdb4c,2025-04-08T09:33:00,40.760569487303485,-73.99560802875834,2025-04-08 10:38:00,40.76039350835183,-73.99517884402648,user_5753,WEST   43 ST OVER AMTRAK   30 ST,Manhattan,Tourist Attraction
210,758f8586-c1ef-4b2e-9cf4-31008814b4ec,2025-04-08T10:21:00,40.76245770301794,-73.99428965785634,2025-04-08 11:18:00,40.76161113830493,-73.99356428809577,user_3417,W 46 ST OV AMTRAK 30 ST BRANCH,Manhattan,Tourist Attraction
211,744aa6ab-7a23-40a9-90ae-22bc0d8a351f,2025-04-08T10:24:00,40.76306697068556,-73.99379367855823,2025-04-08 10:57:00,40.763381338865265,-73.99326420241803,user_1251,W 47 ST OV AMTRAK 30 ST BRANCH,Manhattan,Tourist Attraction
212,3ab48064-f222-445e-b31f-d381a148bb98,2025-04-08T09:45:00,40.76375019943864,-73.9934931005229,2025-04-08 11:35:00,40.76285988859977,-73.99330810022592,user_2136,W 48 ST OV AMTRAK 30 ST BRANCH,Manhattan,Tourist Attraction
213,99b1185f-eba4-4e81-bc60-152ee8a7fe75,2025-04-08T08:41:00,40.76433171230403,-73.99293762041201,2025-04-08 10:24:00,40.76389706107094,-73.9934598764583,user_2767,W 49 ST OV AMTRAK 30 ST BRANCH,Manhattan,Tourist Attraction
214,1bd0a6e4-e3ba-41e0-979a-231e445bd386,2025-04-08T07:38:00,40.765576833109854,-73.99194903920325,2025-04-08 09:25:00,40.764950519375375,-73.99181954165947,user_2564,W 51 ST OV AMTRAK 30 ST BRANCH,Manhattan,Tourist Attraction
215,5c375a79-a279-4969-8d0a-00b5ea2cca46,2025-04-08T06:20:00,40.766276675713364,-73.99170917927343,2025-04-08 07:05:00,40.76654375492027,-73.99192173853059,user_5442,W 52 ST OV AMTRAK 30 ST BRANCH,Manhattan,Tourist Attraction
216,e8602b9e-76e4-40ed-aaa7-0b3f07db6907,2025-04-08T09:28:00,40.76692712900952,-73.99127268715677,2025-04-08 10:19:00,40.7674531841313,-73.99104912874498,user_3154,W 53 ST OV AMTRAK 30 ST BRANCH,Manhattan,Tourist Attraction
217,b3ecef13-4004-458b-bd21-dbdab4bdb747,2025-04-08T08:21:00,40.77085943508664,-73.99062842820379,2025-04-08 10:12:00,40.771503079235515,-73.99043143872096,user_4891,W 58 ST OV AMTRAK 30 ST BRANCH,Manhattan,Tourist Attraction
218,4bc4d3b9-eafe-49ca-9182-8eec57f81d78,2025-04-08T06:56:00,40.771250110203546,-73.99067492957354,2025-04-08 07:56:00,40.770709437819896,-73.99101830663894,user_3404,11 AV BR OV AMTRK   30 ST BRCH,Manhattan,Tourist Attraction
219,257b2b6d-4364-448a-8d72-7be65340aa04,2025-04-08T07:06:00,40.759924566816274,-73.99616973998958,2025-04-08 08:09:00,40.759307774791665,-73.99616877789812,user_6630,W 42 ST OV AMTRAK 30 ST BRANCH,Manhattan,Tourist Attraction
220,2b8e786d-7564-4702-8cc6-cdefda2f547a,2025-04-08T07:52:00,40.829220520333855,-73.9510965599298,2025-04-08 09:03:00,40.8295537624932,-73.95198380054313,user_9923,148 STREET PEDESTRIAN,Manhattan,Tourist Attraction
221,84a64ac1-4ec4-4b38-90d4-4dc9f8319222,2025-04-08T07:51:00,40.83646410997056,-73.94866862968297,2025-04-08 08:34:00,40.836276034217505,-73.94896779774881,user_9147,W 158 ST OV AMTRAK 30 ST BRNCH,Manhattan,Tourist Attraction
222,81c48ada-8834-4b8d-83ee-df61d3c8ebb5,2025-04-08T06:25:00,40.84714351830459,-73.94599125830572,2025-04-08 07:20:00,40.84621012871488,-73.94592890194406,user_8750,WEST 173 STREET PEDESTRIAN,Manhattan,Tourist Attraction
223,09a4bc2e-4372-490c-84dd-3af1d03d48c0,2025-04-08T10:40:00,40.868987960024064,-73.93144802997907,2025-04-08 12:38:00,40.86932075528296,-73.93201780530329,user_2714,INWOOD HILL PARK AMTRAK,Manhattan,Tourist Attraction
224,1691b6a2-5088-4ca2-b4d8-d65a8a74a51b,2025-04-08T07:04:00,40.787269199997276,-73.95205544977,2025-04-08 08:56:00,40.78649503017482,-73.95130791479731,user_9885,EAST   97 ST OVER METRO N RAILRD,Manhattan,Tourist Attraction
225,44bb3638-5c5d-4396-b65e-4ab51be0de44,2025-04-08T09:51:00,40.76495617997425,-73.99245975082489,2025-04-08 10:38:00,40.763976187390845,-73.99343365730368,user_2146,W 50 ST OV AMTRAK 30 ST BRANCH,Manhattan,Tourist Attraction
226,b9adfaf4-b255-4763-9ce4-bf35c2cf9dea,2025-04-08T07:12:00,40.7676419198029,-73.99104464417019,2025-04-08 08:56:00,40.767190398884786,-73.99061196809767,user_4272,W 54 ST OV AMTRAK 30 ST BRANCH,Manhattan,Tourist Attraction
227,4ffcc98d-e17c-424d-9c1b-b00df0a6678b,2025-04-08T09:06:00,40.76839902033439,-73.99091787004812,2025-04-08 09:56:00,40.76864280171479,-73.9912883890841,user_2637,W 55 ST OV AMTRAK 30 ST BRANCH,Manhattan,Tourist Attraction
228,1fc43fd0-da89-4a04-8e64-4ebdcc2c1aaa,2025-04-08T08:03:00,40.76919266724932,-73.99086119997575,2025-04-08 09:41:00,40.76921198906981,-73.98991665307035,user_1790,W 56 ST OV AMTRAK 30 ST BRANCH,Manhattan,Tourist Attraction
229,a5241c9c-eb31-4cd5-8917-76c844b9d65c,2025-04-08T07:02:00,40.771641492886204,-73.97760516127056,2025-04-08 07:32:00,40.77111624489832,-73.97790897190119,user_1263,BRIDLE PTH W OV  65 TRNVS EB EN,Manhattan,Tourist Attraction
230,a5be1993-5590-4642-a179-35bd8393a9ca,2025-04-08T09:02:00,40.75871359935768,-73.99733636948272,2025-04-08 10:27:00,40.7591693790152,-73.99770399185284,user_1139,W 40 ST OV AMTRAK 30 ST BRCH,Manhattan,Tourist Attraction
231,be3ba584-62f0-4ec7-a075-032076b46654,2025-04-08T10:39:00,40.75427006996115,-73.97676336991204,2025-04-08 11:57:00,40.753457051083544,-73.97590739515304,user_8806,PARK AVENUE SB OVER E   45 ST,Manhattan,Tourist Attraction
232,f57c34d1-17ea-43a9-84ed-e9305147c969,2025-04-08T09:28:00,40.75381293992813,-73.97574765972983,2025-04-08 10:05:00,40.75330965349333,-73.97526341750174,user_5505,PARK AVENUE NB OVER E   45 ST,Manhattan,Tourist Attraction
233,d039029c-51cf-4b7e-a455-2b7aab2ee404,2025-04-08T07:10:00,40.76927039754482,-73.9799447183113,2025-04-08 07:50:00,40.76958303671362,-73.98064083215121,user_1604,W DRV OVER PED BTWN   61   62 ST,Manhattan,Tourist Attraction
234,01eb5218-cc38-41ed-8112-aab6f32359a0,2025-04-08T06:53:00,40.76692257679698,-73.97382425891792,2025-04-08 08:52:00,40.76774112488422,-73.97451233489024,user_9763,E   62 ST PED BRDGE OVER THE PND,Manhattan,Tourist Attraction
235,656f7654-96d1-407e-8a85-6cdf9b73701f,2025-04-08T08:40:00,40.76663485036684,-73.97284405946236,2025-04-08 09:37:00,40.76611048838008,-73.97187172584475,user_3097,E DRV OVR PED PATH OPP E   62 ST,Manhattan,Tourist Attraction
236,b0aa2442-2b10-4c39-bc82-4b81d6b0a01a,2025-04-08T08:11:00,40.7679033400001,-73.97315801987772,2025-04-08 08:41:00,40.7685344612375,-73.9729661367983,user_7041,CTRL PK E DR OV PED PTH 63 ST,Manhattan,Tourist Attraction
237,25d476d0-1733-48e3-9caa-dc64e2b3ff2f,2025-04-08T08:03:00,40.769563419994995,-73.97480628954857,2025-04-08 09:53:00,40.77000908210092,-73.97388220435272,user_3846,CTRL PK CTR DR PED PTH OPP 65,Manhattan,Tourist Attraction
238,e64fd45f-81d2-4b03-aa79-45b02d4ffb43,2025-04-08T08:01:00,40.77077486958245,-73.97864622836185,2025-04-08 08:55:00,40.770931441436815,-73.97840046772947,user_9457,W DRV OVER BRIDLE OPP W   64 ST,Manhattan,Tourist Attraction
239,3babe9b0-0ccc-426c-8284-7b283f729419,2025-04-08T07:18:00,40.76901779040597,-73.97284431029134,2025-04-08 07:51:00,40.76935675619586,-73.97355977602297,user_8134,CTRL PK E DR BR OV 65 ST TRNVS,Manhattan,Tourist Attraction
240,c680932b-a4b0-4c93-bc14-3e34f6328df6,2025-04-08T07:14:00,40.770125930275064,-73.97128898949343,2025-04-08 08:00:00,40.770516075626425,-73.9709692293045,user_3847,E DRV OVR PED PATH OPP E   67 ST,Manhattan,Tourist Attraction
241,a3d1fccd-da09-4aec-b8fb-141c95d3869c,2025-04-08T06:53:00,40.77603060949813,-73.97549474197997,2025-04-08 08:40:00,40.77540603840396,-73.97609855599953,user_5086,W   72 ST ENTR OVER BRIDLE PATH,Manhattan,Tourist Attraction
242,b1bb8e66-53fa-4dbd-80ad-2877b155eb6a,2025-04-08T08:38:00,40.77369904041535,-73.97107425961504,2025-04-08 09:53:00,40.77320717610335,-73.97126365730851,user_9012,72 CRSS DR OV PD PTH TO FOUNTN,Manhattan,Tourist Attraction
243,bc74e09d-effb-4f82-9c81-080910095c8c,2025-04-08T08:11:00,40.7744876500504,-73.96888794020113,2025-04-08 09:53:00,40.77371245589924,-73.96966115686769,user_8208,E DRV OVER PD PATH OPP E   73 ST,Manhattan,Tourist Attraction
244,b76754eb-9f8a-4a62-b429-eb733a90e8c5,2025-04-08T08:19:00,40.778197290139445,-73.96651956951439,2025-04-08 09:28:00,40.778721848234,-73.96748287223659,user_9530,CTRL PK E DR OV   79 ST TRNVS RD,Manhattan,Tourist Attraction
245,e2de5e91-659c-48fc-a486-16d4196fb2f8,2025-04-08T08:21:00,40.78439685234912,-73.96721211150005,2025-04-08 09:19:00,40.78369834376562,-73.96812121965422,user_7247,CTL PK W DR OV 86 ST TRNVS RD,Manhattan,Tourist Attraction
246,915b6d39-09fb-4ae3-8246-d0d63e6251f1,2025-04-08T10:00:00,40.789449060305024,-73.9573934097908,2025-04-08 10:49:00,40.789711534432044,-73.95654518167291,user_8760,CTRL PK E DR OV   97 ST TRNVS RD,Manhattan,Tourist Attraction
247,350ef90b-4a25-45b0-a3b8-317e0f25167d,2025-04-08T08:35:00,40.77870126250576,-73.97167508174749,2025-04-08 09:06:00,40.77862907556457,-73.97166054321335,user_8240,OAK BRIDGE OVER THE LAKE,Manhattan,Tourist Attraction
248,131b68dc-4fd0-4e3c-bddf-58bb9c0218c3,2025-04-08T06:23:00,40.77860418963131,-73.97241420202181,2025-04-08 07:55:00,40.777688215971004,-73.97261972835717,user_8364,CNTRL PK W DR OV STREAM TO LAKE,Manhattan,Tourist Attraction
249,81de31df-36d5-4834-a4f0-558b5e1ab51e,2025-04-08T07:17:00,40.77950396007972,-73.97297176148761,2025-04-08 09:04:00,40.778802739116294,-73.97309300754027,user_9474,W   77 ST PED BR OVER STRM TO LK,Manhattan,Tourist Attraction
250,04a61a58-94a9-49f0-a501-1fe47a6fd8e3,2025-04-08T10:04:00,40.77906562982379,-73.96554617946265,2025-04-08 10:39:00,40.77831286575935,-73.96584930757288,user_3864,E DRV OVR PED PATH OPP E   80 ST,Manhattan,Tourist Attraction
251,3d5c2148-5998-4f20-ad36-d98d6a80aa0a,2025-04-08T06:39:00,40.78180331179991,-73.96940858240312,2025-04-08 07:47:00,40.78267950783277,-73.97035709879707,user_4511,W DRV OVR PED PATH OPP W   82 ST,Manhattan,Tourist Attraction
252,883bb229-76bd-41a1-8033-86896e42ec4b,2025-04-08T06:25:00,40.78446222112637,-73.96621708748864,2025-04-08 07:35:00,40.784477128358816,-73.9657935843727,user_6022,SW RESERVOIR BR OVER BRIDLE PATH,Manhattan,Tourist Attraction
253,fb920edd-a428-4e2a-bba6-1dad7ea3cb86,2025-04-08T06:44:00,40.7818986652717,-73.96273641027244,2025-04-08 08:00:00,40.78121263947733,-73.96309916157291,user_2440,SE RESVR BRDG OVER BRIDLE PATH,Manhattan,Tourist Attraction
254,f7188222-1383-4314-85df-d0cc145598ed,2025-04-08T07:07:00,40.77786508003294,-73.96506310007611,2025-04-08 07:58:00,40.777579241617126,-73.96489704737041,user_3900,CTRL PK PED PTH E 79 OVR TRNVS,Manhattan,Tourist Attraction
255,63770cf6-df58-49d6-b2cb-2738de8edea6,2025-04-08T08:03:00,40.799982385784354,-73.95786502382882,2025-04-08 09:17:00,40.7996157038267,-73.9583372727965,user_4083,W 110 ENTR OVR PD PTH OP W 109,Manhattan,Tourist Attraction
256,e692e4a9-8cf1-4e01-a299-c1fb965af9a8,2025-04-08T09:21:00,40.779228799788235,-73.96927222965952,2025-04-08 10:57:00,40.77962551883723,-73.96854959939407,user_4194,CTRL PK 79 ST PED BR OVR TRNVS,Manhattan,Tourist Attraction
257,ce101fdf-6b76-47b0-9763-6bb606718921,2025-04-08T06:30:00,40.77533899006773,-73.96628787029466,2025-04-08 08:10:00,40.77616254366962,-73.96599767530029,user_4263,CTRL PK GLADE ARC OV PD PTH 77,Manhattan,Tourist Attraction
258,a497daf1-aefc-4e97-8e7e-1035b4ba6716,2025-04-08T06:02:00,40.779207607861274,-73.97322876082366,2025-04-08 07:47:00,40.77952660501189,-73.97320656511351,user_5119,W 77 ENTR OV PD PTH OPP W 77,Manhattan,Tourist Attraction
259,ca6d47cb-bf6d-46e2-a775-56ade0109447,2025-04-08T10:25:00,40.79583993032837,-73.95566862970924,2025-04-08 12:03:00,40.795028115251014,-73.95467929867318,user_5250,EAST DRIVE OVER THE LOCH,Manhattan,Tourist Attraction
260,e28ff18c-ace0-4cc4-b405-a29402f1ee40,2025-04-08T07:34:00,40.827334050288925,-73.93522073980076,2025-04-08 09:09:00,40.82653597654853,-73.93434134219312,user_3252,AC POWELL BL NB OV AC POWELL BL,Manhattan,Tourist Attraction
261,17111f24-a787-48a9-a101-16301425a85d,2025-04-08T06:09:00,40.862949290008956,-73.93278882948673,2025-04-08 07:40:00,40.86369179291448,-73.93368936394634,user_7521,MARGARET CORBIN OV FT TRYON PL,Manhattan,Tourist Attraction
262,20104f66-a58b-44a9-b1d4-38d90ed27f9f,2025-04-08T06:22:00,40.86375178005952,-73.93165512978358,2025-04-08 07:15:00,40.86320895471679,-73.93231275975015,user_4951,CORBIN PL OVERPASS OV CORBIN PL,Manhattan,Tourist Attraction
263,f9400043-5360-41d0-b7f0-11f5d76b1eb7,2025-04-08T07:38:00,40.75217960030361,-73.97763201987502,2025-04-08 09:05:00,40.75279233770092,-73.97776738165075,user_2564,PARK AVE VIADUCT OVER E   42 ST,Manhattan,Tourist Attraction
264,6ee2a5cc-1c33-4535-9901-84d0ce774b28,2025-04-08T06:52:00,40.74907275012604,-73.97047858005838,2025-04-08 07:49:00,40.74983504230877,-73.97115324403384,user_6895,TUDOR CITY PLACE OVER E   42 ST,Manhattan,Tourist Attraction
265,9dd75a94-fc21-4114-8a72-2e7102f83f21,2025-04-08T10:19:00,40.7488094401831,-73.96990029968845,2025-04-08 11:39:00,40.749341453708226,-73.96910678053037,user_9547,E42 TO E47 OV 1 AVE TNNL,Manhattan,Tourist Attraction
266,34a5255c-2b3d-4b3e-8fb1-39e7642b2429,2025-04-08T08:35:00,40.84764916602924,-73.94245924784514,2025-04-08 09:53:00,40.847626362388255,-73.94152515446814,user_8374,176 STREET PEDESTRIAN,Manhattan,Tourist Attraction
267,347b81f8-2fdb-4cd4-b7f6-472eb8478e62,2025-04-08T08:48:00,40.81818022026687,-73.96015419031173,2025-04-08 10:13:00,40.818535215917905,-73.96106216327686,user_1240,RIVSIDE DR OVER W 125 W 134ST,Manhattan,Tourist Attraction
268,a9f6818f-fb5e-4722-a2d7-9cc067baa89d,2025-04-08T09:39:00,40.82054022974711,-73.95826397506526,2025-04-08 11:32:00,40.81971715632712,-73.95810314499722,user_6871,WEST  134 ST OVER TERRAIN,Manhattan,Tourist Attraction
269,c47d7821-d1d4-4b0c-a8e4-abbefc22be9c,2025-04-08T09:21:00,40.87362165222587,-73.91975811272734,2025-04-08 10:58:00,40.87299123872164,-73.91892646358829,user_9578,INWOOD HILL PED OV HRLM RIV INLT,Manhattan,Tourist Attraction
270,0dcb89e2-f445-4ea1-9106-d76e8aa1aceb,2025-04-08T07:56:00,40.826706310240425,-73.93538300004553,2025-04-08 09:06:00,40.82603023530078,-73.93583640411593,user_5370,WEST  153 ST OVER AC POWELL BLVD,Manhattan,Tourist Attraction
271,48c5f93d-7da1-41a6-856f-5e74a495b066,2025-04-08T08:23:00,40.796015450265365,-73.97502824003827,2025-04-08 09:02:00,40.7968488263361,-73.97452142608189,user_6082,RIVERSIDE DRIVE OVER W   96 ST,Manhattan,Tourist Attraction
272,03afc372-be52-4c82-a7fd-63f6d2354e02,2025-04-08T08:03:00,40.82284736997118,-73.95569163949826,2025-04-08 08:34:00,40.82311056571169,-73.95668797435012,user_6854,RIVERSIDE DRIVE OVER W  138 ST,Manhattan,Tourist Attraction
273,909f86ca-c433-4d6e-bf2e-8045968ca29f,2025-04-08T06:10:00,40.77235088003035,-73.99417376006096,2025-04-08 06:57:00,40.771860197498974,-73.99387249718488,user_2796,MILLER HIGHWAY OVER TERRAIN,Manhattan,Tourist Attraction
274,68431c41-412b-411d-807d-4c8cd4c6bae9,2025-04-08T07:32:00,40.828925692443015,-73.9504253877282,2025-04-08 08:15:00,40.82853177145777,-73.95135793534692,user_8615,HHP OV PED UNDERPASS AT 148 ST,Manhattan,Tourist Attraction
275,6a4efdc2-d8ed-4156-b14f-bd6aae7596c7,2025-04-08T06:50:00,40.87280072016501,-73.92828732954867,2025-04-08 08:01:00,40.87330652409768,-73.92805566955734,user_4973,HHP NB OV PED UNDRPASS INWD PRK,Manhattan,Tourist Attraction
276,06aab50f-c609-4785-bb4d-8d67758bba36,2025-04-08T07:25:00,40.87277582026365,-73.92918228014625,2025-04-08 09:02:00,40.87189979361642,-73.93015718496409,user_9976,HHP SB OV PED UNDRPAS AT INWD PK,Manhattan,Tourist Attraction
277,0f918cc9-0e6a-4698-aefd-ba649dc839a8,2025-04-08T07:32:00,40.827059650273114,-73.9520112497284,2025-04-08 08:02:00,40.827716419122275,-73.95231557479009,user_8827,RIVERSIDE DRIVE OVER W  145 ST,Manhattan,Tourist Attraction
278,dd12be88-d9c0-4c3f-a9ee-6004cb19d454,2025-04-08T08:00:00,40.844191999980914,-73.93149397004031,2025-04-08 09:47:00,40.843259125424204,-73.93124114584054,user_9158,HRD RAMP TO GWB OVER HRD SB,Manhattan,Tourist Attraction
279,626e9ed3-9f3b-4cdd-b36c-b823ab72f8ca,2025-04-08T08:39:00,40.79643165041096,-73.97599658961245,2025-04-08 10:29:00,40.796519826393855,-73.97594244957864,user_2724,HHP OVER AMTRAK AT WEST   96 ST,Manhattan,Tourist Attraction
280,4659c1c6-5b57-4dfb-b951-70d4f3d57521,2025-04-08T06:50:00,40.70736229982469,-74.01532387541033,2025-04-08 07:20:00,40.7074791386092,-74.01582276401587,user_4221,WEST ST TUNNEL-BKLN BTRY TUNNEL,Manhattan,Tourist Attraction
281,2ef19355-daab-46a3-bf34-ee6715be78ae,2025-04-08T09:30:00,40.785879170289135,-73.98438688946615,2025-04-08 10:13:00,40.78563626080537,-73.98505843620748,user_7062,79 ST PED PZ OVR BOAT BSIN GRG,Manhattan,Tourist Attraction
282,0626569e-b468-4e27-96cb-7148ae9b7d90,2025-04-08T09:43:00,40.78554844999637,-73.98456807959357,2025-04-08 10:42:00,40.786357254081835,-73.98481080207068,user_3074,79 TRAF CIR OV 79 ST PED PLZ,Manhattan,Tourist Attraction
283,fe1bf6c3-5fed-4491-a295-296f8c806b9c,2025-04-08T08:43:00,40.71737766613012,-74.01285715668847,2025-04-08 10:39:00,40.71730366356739,-74.01222614505849,user_7846,TRIBECA,Manhattan,Tourist Attraction
284,dab28996-7676-4217-b546-931f93a0899b,2025-04-08T06:15:00,40.74885353036956,-73.96744684961604,2025-04-08 07:52:00,40.748639884581834,-73.96663567909174,user_1501,FDR DR NB E42 TO 49 OV RIV,Manhattan,Tourist Attraction
285,88d48962-b55f-4164-9c9f-14ff01405347,2025-04-08T09:13:00,40.706339750180675,-74.01474751978192,2025-04-08 10:36:00,40.70657681053377,-74.01473192336168,user_8167,BK BATTERY TNNL PEDESTRIAN,Manhattan,Tourist Attraction
286,ca00777b-3f4c-4e0b-9309-437edfd43062,2025-04-08T09:26:00,40.77935503051476,-73.98752188794789,2025-04-08 11:09:00,40.77905646183752,-73.98683907656235,user_4355,WEST   70 STREET OVER AMTRAK,Manhattan,Tourist Attraction
287,832eab16-d151-410b-89fb-6ea62f07154f,2025-04-08T06:22:00,40.77800723762486,-73.98819284688253,2025-04-08 07:02:00,40.77776108315406,-73.98853188417117,user_9964,WEST   68 STREET OVER AMTRAK,Manhattan,Tourist Attraction
288,ff0ad923-69c4-498f-a8be-fe63f1c8014c,2025-04-08T09:35:00,40.834125960081145,-73.94892726006438,2025-04-08 10:43:00,40.83497266219937,-73.94974784203923,user_7697,RIVERSIDE DRIVE OVER W  155 ST,Manhattan,Tourist Attraction
289,3f674b82-1d00-4261-bdf3-826fc0acd5b4,2025-04-08T07:24:00,40.776724991317536,-73.98890269565668,2025-04-08 09:22:00,40.77572901952448,-73.98855723044495,user_6805,WEST   66 STREET OVER AMTRAK,Manhattan,Tourist Attraction
290,e0b68999-c959-474a-93f7-1fd8469344de,2025-04-08T10:29:00,40.775248238271196,-73.9894227263419,2025-04-08 12:01:00,40.77618758997579,-73.98848383108444,user_4310,WEST   64 ST OVER AMTRAK,Manhattan,Tourist Attraction
291,423b6b20-1df8-4bfb-a98f-a65ff477b1d2,2025-04-08T08:31:00,40.79776999992825,-73.9163399999704,2025-04-08 10:12:00,40.79685078266878,-73.91646501863492,user_5564,RANDALL ISLND CONN PD OV BX KILL,Manhattan,Tourist Attraction
292,b1daf0ef-631c-4b3c-973a-e59f0c679a65,2025-04-08T09:28:00,40.78131638027899,-73.9862145896304,2025-04-08 10:59:00,40.782000434667225,-73.98600158689936,user_2014,PED BR AT 73 ST OVR HHP AMTRAK,Manhattan,Tourist Attraction
293,a4beea0c-4492-471b-a22a-3e10dcfd6045,2025-04-08T09:49:00,40.78099890976821,-73.98706610946978,2025-04-08 10:54:00,40.78058707414692,-73.98785855411641,user_1541,W 72 ST RAMP TO H HUDSN PKWY NB,Manhattan,Tourist Attraction
294,4094b5ae-0498-475f-a989-ded157d73563,2025-04-08T07:30:00,40.70722444005802,-74.00075556005288,2025-04-08 09:00:00,40.70692430260298,-74.00086648129346,user_9656,FDR DRV NB OFF RAMP OV FDR S ST,Manhattan,Tourist Attraction
295,92b4ed9a-83da-4251-a782-4ecc2b1b5315,2025-04-08T10:03:00,40.70818320036175,-73.99898421971481,2025-04-08 11:47:00,40.70794887584006,-73.99821402278195,user_1983,RMP TO FDR DR NB OV FDR DR S ST,Manhattan,Tourist Attraction
296,b9409ea3-3d6d-4415-be11-f3b6bf217737,2025-04-08T07:52:00,40.71998493026239,-73.97458039972935,2025-04-08 08:47:00,40.72003827859006,-73.97517930090811,user_8461,HOUSTON ST RAMP TO FDR DRIVE NB,Manhattan,Tourist Attraction
297,8da8506b-13e0-41bd-a95b-dd17344ae07f,2025-04-08T09:44:00,40.710268520409635,-74.00251789978053,2025-04-08 11:10:00,40.710798127775554,-74.00173627899657,user_2233,BK BR EN FDR OV FRKFT PEARL ST,Manhattan,Tourist Attraction
298,b43224fb-8a48-4969-b804-8d01bc1b0ace,2025-04-08T10:28:00,40.71023938010186,-74.0023754600291,2025-04-08 11:06:00,40.7096628036541,-74.00159424478076,user_7491,PRL ST TO BKLYN OVER LND ADJ BR,Manhattan,Tourist Attraction
299,14412b8a-aa08-422c-a038-319cd9b619d3,2025-04-08T09:56:00,40.7096430281258,-74.00116612730045,2025-04-08 10:54:00,40.70949743399655,-74.00055778666093,user_4765,TO FDR DRIVE NB OVER PEARL ST,Manhattan,Tourist Attraction
300,13abe095-d8a4-4fae-aaec-3bac9d890b0c,2025-04-08T07:24:00,40.71081996024132,-74.00210704945886,2025-04-08 08:52:00,40.711795917634824,-74.00168369576014,user_6923,TO PEARL ST OVR LND ADJ TO BRDGE,Manhattan,Tourist Attraction
301,e031ce19-eb48-4b21-b353-e6b1dafe13cd,2025-04-08T09:11:00,40.70929967015357,-74.00038198016175,2025-04-08 09:59:00,40.70842489199295,-74.00065272007261,user_7373,PRLST TO FDR DR OV LND ADJ TO BR,Manhattan,Tourist Attraction
302,f6bcccab-104a-48f8-a5c1-5fcc32d6ca45,2025-04-08T07:30:00,40.75984551028597,-73.96175863949985,2025-04-08 08:14:00,40.7593210239074,-73.9617620315662,user_1175,TO QUEENS FRM 59 ST OV 1 AV,Manhattan,Tourist Attraction
303,2278e1e0-43a3-45c3-9c92-97e6f83ffadf,2025-04-08T10:08:00,40.760911560030934,-73.96273057008541,2025-04-08 11:04:00,40.76020019082029,-73.96279211413372,user_8709,TO E 62 ST FRM QN OV 60 61,Manhattan,Tourist Attraction
304,4092342d-bae7-4694-b6ca-cde9b3058b42,2025-04-08T08:47:00,40.760482020247245,-73.96335630031311,2025-04-08 09:35:00,40.75958778668661,-73.96373575001736,user_1180,TO QNS FRM E 58 OV E 59 ST,Manhattan,Tourist Attraction
305,02201b19-4dac-43bc-af74-0d3bbf8d87e7,2025-04-08T09:42:00,40.760145239527425,-73.96198078860307,2025-04-08 10:29:00,40.75917946507065,-73.96278175092215,user_8462,59 BR RP OV GAR AT 2 AV MN,Manhattan,Tourist Attraction
306,aec556f0-b067-4467-80f7-495c046d3ec5,2025-04-08T08:35:00,40.80168508012803,-73.92999585001857,2025-04-08 10:20:00,40.800687463914215,-73.9293730702472,user_9400,FROM FDR DRV OVER HARLEM RIV DRV,Manhattan,Tourist Attraction
307,313162ab-231f-4fb7-a585-86a58659599e,2025-04-08T07:10:00,40.81409934003263,-73.93464095953132,2025-04-08 08:38:00,40.81348063460624,-73.93439279925182,user_1943,TO MADISON AVENUE OVER E  138 ST,Manhattan,Tourist Attraction
308,f86c0d14-f9e9-44ce-ba93-6332528dfc19,2025-04-08T06:12:00,40.75690345942405,-74.00458521846176,2025-04-08 07:02:00,40.75694290121897,-74.00377622640603,user_5110,W 34 ST OV AMTRAK 30 ST BRANCH,Manhattan,Tourist Attraction
309,9526b3e4-66fb-4cc9-9aa9-cd845254763a,2025-04-08T07:15:00,40.75645459804449,-74.00148554013636,2025-04-08 07:46:00,40.75651010088947,-74.00146052968144,user_3288,W 35 ST OV AMTRAK 30 ST BRANCH,Manhattan,Tourist Attraction
310,c9cce081-f5fd-4ebb-a35a-ae32a9e3d926,2025-04-08T08:23:00,40.75668854157986,-74.0001588592515,2025-04-08 10:09:00,40.75737107299162,-74.00020925321078,user_3342,W 36 ST OV AMTRAK 30 ST BRANCH,Manhattan,Tourist Attraction
311,7da08288-88c1-40b0-ab21-00eb40ac0d6e,2025-04-08T06:12:00,40.75149469191667,-73.99765030622694,2025-04-08 07:09:00,40.75109339598766,-73.99724783613232,user_3794,W 31 OVER AMTRAK LAYUP TRACKS,Manhattan,Tourist Attraction
312,7d4655cc-5273-48e1-8e7f-b3aa85d92e13,2025-04-08T10:22:00,40.78494577995005,-73.98477804958925,2025-04-08 11:01:00,40.78551470485972,-73.98512397588365,user_2520,79 ST RAMP TO HHP OV BOAT BSIN,Manhattan,Tourist Attraction
313,1278e23b-7fa3-4df6-ac4e-cc0b8f440f7b,2025-04-08T08:19:00,40.7853558902317,-73.98491035009985,2025-04-08 10:12:00,40.78469559216303,-73.98402378430922,user_6469,79 ST RMP TO GAR OV BT BASN GR,Manhattan,Tourist Attraction
314,93d4bcd7-4591-471a-b30a-9be663ff1095,2025-04-08T08:27:00,40.78622830017993,-73.9839742996379,2025-04-08 09:57:00,40.78535546746308,-73.98421880261776,user_4518,HHP SB RAMP   79 ST OV BOAT BSIN,Manhattan,Tourist Attraction
315,30a471a3-fd88-4941-b9d1-174fd5023ce0,2025-04-08T09:11:00,40.85670571745817,-73.93261863034331,2025-04-08 10:16:00,40.85664400095012,-73.93168700954058,user_6782,WEST  191 ST PED TUNL OVER BDWY,Manhattan,Tourist Attraction
316,5f8dc4aa-ffb2-4cdd-9aed-bff7d7b1ad32,2025-04-08T09:09:00,40.78484091979671,-73.98368415009857,2025-04-08 10:18:00,40.785138448548224,-73.98296213564757,user_3866,HHP RAMP 79 ST S SIDE OV PED PTH,Manhattan,Tourist Attraction
317,1c3be0fa-b7ac-4c52-803a-06a1ae663213,2025-04-08T06:19:00,40.78571513040836,-73.98305937955013,2025-04-08 07:04:00,40.78487670205821,-73.98281987193947,user_9185,HHP RAMP 79 ST N SIDE OV PED PTH,Manhattan,Tourist Attraction
518,16663545-25c5-402a-bcd5-c2b2e520df34,2025-04-08T06:44:00,40.874003464731906,-73.91058779565651,2025-04-08 08:21:00,40.87337856775012,-73.91005211378553,user_3987,BWAY BR OVR HARLEM RIVER IRT,Manhattan,Tourist Attraction
866,9288dee2-924c-4634-bed6-b7f35fc9db7b,2025-04-08T10:31:00,40.874021844965746,-73.9105618086379,2025-04-08 11:58:00,40.87327475529889,-73.91117262380597,user_5962,BROADWAY,Manhattan,Tourist Attraction
868,c7fd6f6c-22d9-44fd-bb86-d473f33da78c,2025-04-08T09:11:00,40.773813654869436,-73.9709770785094,2025-04-08 10:46:00,40.77479007919196,-73.97171508119568,user_5009,BETHESDA,Manhattan,Tourist Attraction
876,4dd2c98e-c72b-4a33-a0d6-b220183452b0,2025-04-08T10:13:00,40.70779333657767,-73.99889502333778,2025-04-08 11:44:00,40.70878939757141,-73.99832651802731,user_6357,BROOKLYN BRIDGE WB RB,Manhattan,Tourist Attraction
877,c7aab87e-de07-4abd-8284-1dd8c836b89e,2025-04-08T10:06:00,40.707720868808835,-73.99901539809248,2025-04-08 11:22:00,40.70701008277553,-73.99959330302934,user_7717,BROOKLYN BRIDGE EB RB,Manhattan,Tourist Attraction
878,d2f20762-3213-40f4-b6da-fc422c1a6ee8,2025-04-08T09:28:00,40.709263801298434,-73.99160413324513,2025-04-08 10:35:00,40.71012890197799,-73.9908135943915,user_4395,MANHATTAN BRIDGE WB ROADBED,Manhattan,Tourist Attraction
879,68be0a26-3f24-4111-918f-6c6a503db0f8,2025-04-08T06:58:00,40.70923323197209,-73.99187498582822,2025-04-08 07:48:00,40.70949341846674,-73.99207645167938,user_5152,MANHATTAN BRIDGE EASTBOUND RB,Manhattan,Tourist Attraction
883,3b9963a8-aca7-4abe-b4ae-e5df70d8eb63,2025-04-08T08:33:00,40.71477840772272,-73.97582595084587,2025-04-08 10:02:00,40.71413219538568,-73.97568301536994,user_6214,WILLIAMSBURG BRIDGE WB RB,Manhattan,Tourist Attraction
884,f7f06d37-33fe-4362-880a-61058c2b6fa3,2025-04-08T08:33:00,40.71464715893155,-73.97593234875725,2025-04-08 09:45:00,40.713805206357364,-73.97554590584204,user_6972,WILLIAMSBURG BRIDGE EB RB,Manhattan,Tourist Attraction
886,9f4460df-02bc-4286-9cc7-91251fb6ad50,2025-04-08T08:53:00,40.87381210176656,-73.92925546398926,2025-04-08 09:56:00,40.87462867698099,-73.92944043959518,user_3845,204 ST PED BR OV METRO N RAIL,Manhattan,Tourist Attraction
887,843718b3-2654-49ee-ba54-c4e320fb3e0c,2025-04-08T09:35:00,40.873395939832875,-73.91914725145902,2025-04-08 10:08:00,40.87299357352427,-73.9187815117478,user_3044,W 218 ST BR OV HARLEM RIV INLET,Manhattan,Tourist Attraction
888,65aca879-c0c6-4c73-bc1e-33026131ff5f,2025-04-08T08:31:00,40.75932838209713,-73.99681867422318,2025-04-08 10:02:00,40.7603229328631,-73.99663092819446,user_3426,W 41 ST OV AMTRAK 30 ST BRCH,Manhattan,Tourist Attraction
889,14f435e3-d442-497f-aa81-4baaa483c653,2025-04-08T07:29:00,40.76977073379063,-73.97450088597374,2025-04-08 08:32:00,40.770196069701306,-73.97379866565483,user_3814,CTRL PK CENTER DR OV 65 TRNVS,Manhattan,Tourist Attraction
890,e17e5f11-2f70-440b-a8a9-20f8b723b69f,2025-04-08T08:28:00,40.771518008390075,-73.97732309634394,2025-04-08 09:32:00,40.77199622526175,-73.97654749706051,user_7275,CENTRAL PK W DR OV 66 ST TRNVS,Manhattan,Tourist Attraction
897,b6693efd-f428-4ff2-b1cb-31974072003c,2025-04-08T06:43:00,40.84685677669925,-73.9278892794185,2025-04-08 08:35:00,40.84595210067347,-73.9271373584059,user_5629,WASH BR 181 ST OVER HRLM RIV MN,Manhattan,Tourist Attraction
898,9c0affe8-fa0a-467d-be6c-e2f446ed05de,2025-04-08T09:35:00,40.71448522905897,-73.97665468400376,2025-04-08 11:09:00,40.71361772776958,-73.97590653300972,user_5054,DELANCEY ST PED BR OVER FDR DRV,Manhattan,Tourist Attraction
899,a5497e00-be91-479e-a566-77d839c92bdf,2025-04-08T07:19:00,40.70850776805605,-73.9992606701556,2025-04-08 09:14:00,40.70847609656993,-73.99843315321749,user_5517,FDR DRIVE SB OFF RAMP OVER S ST,Manhattan,Tourist Attraction
900,7a18af6f-1b4e-4675-902a-56f544c48bfc,2025-04-08T06:43:00,40.76024520125435,-73.9614726369321,2025-04-08 08:26:00,40.759825914170875,-73.96164308091006,user_8367,E 60 ST FROM QUEENS OV 1 AV,Manhattan,Tourist Attraction
901,e2baa591-b73d-48be-80e5-c8d4cced21de,2025-04-08T07:10:00,40.755857563537035,-74.0054162658212,2025-04-08 08:58:00,40.75540171590873,-74.00489054220019,user_1549,W 33 ST OV AMTRAK 30 ST BRANCH,Manhattan,Tourist Attraction
902,9a42d72f-6baf-4739-8804-561f2759f1dd,2025-04-08T09:04:00,40.78606759338236,-73.9846433824889,2025-04-08 11:01:00,40.7859593445871,-73.98403119664903,user_1527,GARAGE RMP TO 79 ST OV BT BASIN,Manhattan,Tourist Attraction
903,35b63470-5631-4127-ad60-6a50348f03ad,2025-04-08T08:02:00,40.78076458037602,-73.986777017136,2025-04-08 08:48:00,40.78096087254312,-73.98721464187437,user_4736,HHP VIDCT OV AMTK W 72 TO 79,Manhattan,Tourist Attraction
904,97a72ec6-2413-45d5-96b9-071225b65d2e,2025-04-08T08:06:00,40.78515160243354,-73.98313982877876,2025-04-08 09:29:00,40.78420335033516,-73.98252635204672,user_8302,WEST   79 STREET OVER AMTRAK,Manhattan,Tourist Attraction
905,7026ec8c-f275-497f-bf8f-07e32db74de8,2025-04-08T10:55:00,40.79185979822381,-73.93525977159588,2025-04-08 11:58:00,40.79134459163421,-73.9349489632424,user_2859,EAST 111 ST PED BRDG OVER FDR DR,Manhattan,Tourist Attraction
906,72366101-fa85-4c4c-bf49-efa7f73deef2,2025-04-08T08:57:00,40.760123526800044,-73.9574736686134,2025-04-08 10:38:00,40.76055368954113,-73.9581675345888,user_2602,FDR DR SB OV FDR DR NB E 62 ST,Manhattan,Tourist Attraction
907,19f6346a-5f32-40ea-8630-5438d9ab3543,2025-04-08T09:54:00,40.76117652737862,-73.99515610610203,2025-04-08 11:04:00,40.760643006926216,-73.9946173124455,user_4651,WEST   44 ST OVER AMTRAK   30 ST,Manhattan,Tourist Attraction
908,645d3580-83d4-43b2-bfb5-bab320ce75b3,2025-04-08T06:36:00,40.76174636320381,-73.99456820362609,2025-04-08 07:31:00,40.7617918300929,-73.99451367009732,user_9689,W 45 ST OV AMTRAK 30 ST BRANCH,Manhattan,Tourist Attraction
909,d4e37318-e911-4a34-90ab-9d64141bcc87,2025-04-08T08:35:00,40.7700159460745,-73.9907326157418,2025-04-08 09:37:00,40.77028884027002,-73.99040811427574,user_2198,W 57 ST OV AMTRAK 30 ST BRANCH,Manhattan,Tourist Attraction
910,645dd20d-1432-41dd-bf78-5fa4cd5ca2b5,2025-04-08T08:11:00,40.76880000956459,-73.97096460764008,2025-04-08 10:04:00,40.76977438065428,-73.97192643795476,user_1793,TRNVS 1WB OV PD PTH OPP 66,Manhattan,Tourist Attraction
911,a93ac60c-a9e4-4663-8b36-aee45d2e6044,2025-04-08T07:23:00,40.84510598797268,-73.94381867390506,2025-04-08 07:58:00,40.84560637247885,-73.94303128658848,user_6287,GWB OPP W  171 ST OV RIVSIDE DRV,Manhattan,Tourist Attraction
912,4f68d574-cd4e-4c4b-b2b2-762023a0439a,2025-04-08T09:06:00,40.76854007191755,-73.97566872247131,2025-04-08 10:16:00,40.76759149343531,-73.97575163623041,user_2193,CENTER DR OVR PED PATH 63 ST,Manhattan,Tourist Attraction
913,a6f061b5-5854-4e41-bb2d-de59019164d7,2025-04-08T06:50:00,40.77994663301372,-73.97099498400065,2025-04-08 08:12:00,40.78001276148047,-73.97003385081811,user_5067,CTL PK W DR OV 79 ST TRNVS RD,Manhattan,Tourist Attraction
914,aa614ed1-e847-4205-b489-affdae31f471,2025-04-08T08:21:00,40.7815777940123,-73.96277131340007,2025-04-08 10:00:00,40.78135148140261,-73.96273047718279,user_2757,CTRL PK E DR OV 85 ST TRNVS RD,Manhattan,Tourist Attraction
915,1325b28a-1a65-45aa-93f2-3e9a59936c8d,2025-04-08T07:44:00,40.84804810091417,-73.93063356067651,2025-04-08 08:50:00,40.84857905253711,-73.93102098938766,user_3881,W 181 OVER RAMP TO WASHINGTON BR,Manhattan,Tourist Attraction
916,6bb46d4b-2150-4cd5-83bc-2e848872a9ae,2025-04-08T07:59:00,40.83644343730734,-73.94852530438179,2025-04-08 09:50:00,40.836931002274795,-73.94948644436047,user_5169,RIVERSIDE DR OV W158 ST AMTRAK,Manhattan,Tourist Attraction
917,b664035f-cb0d-4e79-9438-4c23a15d3d40,2025-04-08T07:48:00,40.80701689214415,-73.93534754367815,2025-04-08 08:20:00,40.8077795493686,-73.93477806537099,user_1570,E  129 ST PED BRDG OVER    3 AVE,Manhattan,Tourist Attraction
918,a7fa3742-4131-4f0b-b141-29c56812642e,2025-04-08T08:04:00,40.834310132050476,-73.94950865156542,2025-04-08 08:41:00,40.83396144029936,-73.94914077427829,user_1715,155 STREET PEDESTRIAN,Manhattan,Tourist Attraction
919,254d6f93-7add-4a09-95ec-1dba0391aec5,2025-04-08T09:57:00,40.76927588852884,-73.97888421715483,2025-04-08 11:01:00,40.76914940044531,-73.97863074335618,user_4408,PINEBANK ARCH OVER BRIDLE PATH,Manhattan,Tourist Attraction
920,3b35b629-5e7f-4123-b71a-58d179965bb6,2025-04-08T10:08:00,40.76936591609027,-73.97395465473141,2025-04-08 12:02:00,40.769466294211576,-73.97410079328466,user_8462,PED BR OPP 65 ST OVR TRANSVRSE,Manhattan,Tourist Attraction
942,64da107e-e6ce-4daf-a2be-081ff4a92f5d,2025-04-08T10:35:00,40.79164413363637,-73.9625346901012,2025-04-08 11:36:00,40.79219273311864,-73.96187732316912,user_4046,CNTL PK W DR OV 97ST TRNVS RD,Manhattan,Tourist Attraction
943,d7386414-0fda-4d9c-a281-ac0f71592950,2025-04-08T08:10:00,40.836666142774185,-73.9490339905629,2025-04-08 09:36:00,40.83721500667105,-73.95000509743637,user_8129,HENRY HUDSON PKWY OV W  158 ST,Manhattan,Tourist Attraction
944,74594586-e55c-48ad-9c98-1fa49a371819,2025-04-08T10:28:00,40.79521807764164,-73.9778087960642,2025-04-08 11:07:00,40.795527543322514,-73.97700143564958,user_1009,HHP SB RAMP FROM W   96 ST,Manhattan,Tourist Attraction
945,aa28e53c-ea1b-4b6e-8ee8-b9a8f241dcf8,2025-04-08T06:23:00,40.75584548230814,-74.0041612025511,2025-04-08 06:59:00,40.75628536795623,-74.00467668432817,user_2655,W 33 OVER LAND ADJ TO AMTRAK,Manhattan,Tourist Attraction
946,eb55c6bc-6237-4230-8805-524465b6f8ee,2025-04-08T10:22:00,40.71176142152933,-74.00445441641631,2025-04-08 12:22:00,40.71246566101668,-74.00359182469585,user_4713,PARK ROW-BKLN OVER WILLIAM ST NB,Manhattan,Tourist Attraction
947,4dc4274c-f2c5-412b-97e6-cd4332912bd8,2025-04-08T09:57:00,40.717953874947725,-73.97487708261806,2025-04-08 10:56:00,40.718093306524075,-73.97437744769474,user_6951,FDR DRIVE NB RAMP TO HOUSTON ST,Manhattan,Tourist Attraction
948,da08c41b-10b6-4ceb-a472-0f688b1d5f39,2025-04-08T09:38:00,40.708101334522574,-73.99994775270558,2025-04-08 10:22:00,40.70839746574694,-73.99918370716185,user_1437,SOUTH ST RAMP TO FDR SB S ST,Manhattan,Tourist Attraction
949,8cfcc063-d290-4536-b1c7-cdb749f9f6cc,2025-04-08T10:38:00,40.86681987621844,-73.93154527382029,2025-04-08 12:18:00,40.86775581254765,-73.93143573416525,user_6395,RAMP TO HHP NB OVER AMTRK W SIDE,Manhattan,Tourist Attraction
950,cd1927de-1142-4fea-a58b-6a01a2d3b983,2025-04-08T07:36:00,40.77156792456411,-73.94662004919692,2025-04-08 08:57:00,40.770623507694594,-73.9459333679531,user_7834,EAST   81 ST PED BR OVER FDR DRV,Manhattan,Tourist Attraction
951,de0b728b-6c7d-4fe3-a557-7a5b9fb859fb,2025-04-08T09:20:00,40.77957669265553,-73.98800402682548,2025-04-08 10:55:00,40.77978636724549,-73.98774841059972,user_4666,RIVERSIDE DRIVE S OVER AMTRAK,Manhattan,Tourist Attraction
952,6b5625b2-cd8c-4701-9916-71a77618caad,2025-04-08T06:43:00,40.74707107756021,-73.9813829204758,2025-04-08 08:37:00,40.74706482581991,-73.98167321017317,user_6592,E 34 ST OVER PARK AVENUE TUNNEL,Manhattan,Tourist Attraction
953,1b7d48bf-d980-49f0-ba75-8753127cb98f,2025-04-08T10:41:00,40.76838144465202,-73.97107964788111,2025-04-08 12:20:00,40.76853157923039,-73.97174429535508,user_6143,TRNVS 1EB OV PD PTH OPP 66,Manhattan,Tourist Attraction
954,2fe9536e-5398-4761-833b-6bb4f4b9a6bb,2025-04-08T06:58:00,40.71130437175898,-74.0032989309322,2025-04-08 08:13:00,40.710692925739146,-74.00367180794731,user_4151,TO PARK ROW OVER ROSE STREET,Manhattan,Tourist Attraction
959,9febab29-8cc4-4549-8bb6-a16504dfd31f,2025-04-08T10:47:00,40.70960205766462,-74.00164964261319,2025-04-08 12:28:00,40.71037577702995,-74.00066916320885,user_9912,BROOKLYN BRIDGE EN RP PEARL ST,Manhattan,Tourist Attraction
960,b443092a-bb07-4611-b929-189dc28faf6f,2025-04-08T07:33:00,40.708485952554014,-73.99944660023787,2025-04-08 09:30:00,40.70811634169247,-73.99852363377235,user_3127,BROOKLYN BRIDGE EN RP FDR DR,Manhattan,Tourist Attraction
961,a9e8a205-7f7c-4c2f-a3c8-7bb25c71021b,2025-04-08T07:44:00,40.7489906765207,-73.98001922464468,2025-04-08 09:36:00,40.74968777230931,-73.97937029529088,user_7969,PARK,Manhattan,Tourist Attraction
962,e7646ac3-b7ed-438b-beb3-bd4e59b3a36d,2025-04-08T06:28:00,40.756158988178505,-74.00078125730425,2025-04-08 08:10:00,40.75584425133465,-74.00050136280524,user_8994,EMPIRE LINE,Manhattan,Tourist Attraction
963,0d088f3f-6866-4953-9364-095225efb163,2025-04-08T07:43:00,40.75645840121445,-74.00777743969304,2025-04-08 09:21:00,40.75694007731514,-74.00706493913707,user_2327,NORTH RIVER TUNNEL NORTH TUBE,Manhattan,Tourist Attraction
964,30a67fd5-d27d-4137-b468-66414db1335a,2025-04-08T09:04:00,40.75634879776636,-74.00783821234272,2025-04-08 10:10:00,40.755660843205746,-74.00707870768969,user_1214,NORTH RIVER TUNNEL SOUTH TUBE,Manhattan,Tourist Attraction
965,fe4ac466-a4cd-4dfd-b57f-15b127a7ce42,2025-04-08T10:16:00,40.742038903302294,-73.9686785642976,2025-04-08 12:15:00,40.742699554068146,-73.96930570943981,user_5174,EAST RIVER TUNNEL LINE 4,Manhattan,Tourist Attraction
966,28de3802-e5ff-497f-beb1-f828be662ce0,2025-04-08T09:01:00,40.74219648844213,-73.96859250123413,2025-04-08 09:38:00,40.74219073227982,-73.9690700437712,user_6160,EAST RIVER TUNNEL LINE 3,Manhattan,Tourist Attraction
967,68272523-b6cc-4066-88ca-d419c975b92c,2025-04-08T09:53:00,40.7423513538995,-73.96858068108689,2025-04-08 10:57:00,40.74326383432624,-73.96952167008827,user_7350,EAST RIVER TUNNEL LINE 2,Manhattan,Tourist Attraction
968,b796a9fd-1c2c-4067-b871-cea08fa6ca40,2025-04-08T07:10:00,40.74250026008419,-73.96855711630701,2025-04-08 08:34:00,40.743487437823084,-73.96922572068951,user_2307,EAST RIVER TUNNEL LINE 1,Manhattan,Tourist Attraction
969,6b708785-a4c1-4829-8f61-be34eb0ac3bc,2025-04-08T08:15:00,40.83001585289525,-73.93422437856573,2025-04-08 10:12:00,40.82958915568015,-73.93398815027638,user_2486,161 ST TUBE/CONCOURSE,Manhattan,Tourist Attraction
970,639e7cb5-ec11-4f56-9b42-b4201b74ca97,2025-04-08T06:30:00,40.81933609880314,-73.93371468699415,2025-04-08 07:48:00,40.81874894236968,-73.93394049840447,user_3195,149 STREET TUBE,Manhattan,Tourist Attraction
971,58f6c6f2-70dc-46ef-b51a-85d2d66a9a4f,2025-04-08T08:53:00,40.80910416304143,-73.93381468351154,2025-04-08 09:37:00,40.80891359254199,-73.93291551976722,user_1167,LEXINGTON AVENUE TUBE,Manhattan,Tourist Attraction
972,c805628e-878d-4441-9e20-ffbe7217d6a3,2025-04-08T06:42:00,40.76012612976,-73.95566623346296,2025-04-08 07:36:00,40.75920038007903,-73.95623969264888,user_6686,63 STREET TUBE,Manhattan,Tourist Attraction
973,10098256-5147-4484-b89c-cd0a9b518ec1,2025-04-08T08:34:00,40.7584333192007,-73.95748515291186,2025-04-08 09:14:00,40.75943019686474,-73.95842548320097,user_3689,60 STREET TUBE,Manhattan,Tourist Attraction
974,88cc39da-cd48-4ccf-a4c4-f83a43923fcf,2025-04-08T08:33:00,40.753885331516244,-73.96120339285595,2025-04-08 10:19:00,40.75453888504134,-73.96187757237739,user_3956,53 STREET TUBE,Manhattan,Tourist Attraction
975,d109f8ac-1dc0-46e8-a953-0635aa34374c,2025-04-08T08:29:00,40.74749235563856,-73.96696064596277,2025-04-08 10:16:00,40.74698683375775,-73.96709937596222,user_6806,STEINWAY TUBE,Manhattan,Tourist Attraction
976,0d905d0c-f80c-4fd8-bf7c-9fc2f69ac5a1,2025-04-08T06:46:00,40.72527140994572,-73.96950719795514,2025-04-08 07:16:00,40.72571246797468,-73.96892791625157,user_6035,14 STREET/CANARSIE TUBE,Manhattan,Tourist Attraction
977,c6f21d88-1186-4cad-88fa-8870a13e4f00,2025-04-08T08:44:00,40.70834838544258,-73.98841058980138,2025-04-08 09:22:00,40.7077774915339,-73.98875356548132,user_1080,RUTGERS TUBE,Manhattan,Tourist Attraction
978,7133db23-452a-471d-b15f-ab19800092cd,2025-04-08T07:11:00,40.70386708723808,-74.00118235948179,2025-04-08 08:25:00,40.70379805305732,-74.00039810900715,user_6205,CRANBERRY ST/FULTON STREET TUBE,Manhattan,Tourist Attraction
979,1c236837-f9f5-4bbf-85f0-e2a17e784cf7,2025-04-08T06:14:00,40.70121035727789,-74.00541965652056,2025-04-08 06:45:00,40.70045638187009,-74.00574030441894,user_2908,CLARK STREET TUBE,Manhattan,Tourist Attraction
980,4fe21fcb-f2af-4833-9408-11e8b3d11cbe,2025-04-08T08:52:00,40.69954418954155,-74.0092893871315,2025-04-08 10:14:00,40.69916668588037,-74.00978091890036,user_2849,MONTAGUE TUBE,Manhattan,Tourist Attraction
981,fbb51daf-a411-4e35-a310-32e87d91a84e,2025-04-08T07:21:00,40.69888652747926,-74.01002184383015,2025-04-08 08:02:00,40.69941596660138,-74.0092074993043,user_6606,JORALEMON TUBE,Manhattan,Tourist Attraction
983,83c95495-c847-4517-94c8-54939d95c96c,2025-04-08T09:52:00,40.81378719835002,-73.9508516834577,2025-04-08 11:48:00,40.812871070742965,-73.95029734518273,user_4608,ST NICHOLAS PLAYGROUND,Manhattan,Tourist Attraction
1013,208a42fb-9ffa-41b7-95a8-5a5aa7de6047,2025-04-08T10:46:00,40.725149865763946,-73.97334183296284,2025-04-08 12:27:00,40.72456629340214,-73.97409018252942,user_7282,RIIS HOUSES BUILDING 6,Manhattan,Tourist Attraction
1019,97c950e4-ecbe-4264-b7a7-d6ccd01227f7,2025-04-08T06:44:00,40.80780439997023,-73.96088329404239,2025-04-08 07:44:00,40.808188046336916,-73.96081072925129,user_5220,COLUMBIA UNIVERSITY ST PAULS CHAPEL,Manhattan,Tourist Attraction
1020,0d27748d-eae0-4500-912a-4d9a6ac41d88,2025-04-08T06:39:00,40.75620700230814,-73.96626855067571,2025-04-08 07:59:00,40.75626483598803,-73.96550393125747,user_7150,ROCKEFELLER UNIVERSITY LYDEN HOUSE,Manhattan,Tourist Attraction
1022,5cf1c272-6ad2-4b28-9909-628042409645,2025-04-08T06:19:00,40.785674329935304,-73.95395763423411,2025-04-08 07:47:00,40.78486880434318,-73.95353967395573,user_5657,SQUADRON A ARMORY,Manhattan,Tourist Attraction
1024,73134cf6-788e-4c96-b309-e538dd87973f,2025-04-08T06:47:00,40.86647572734032,-73.91505416565064,2025-04-08 08:27:00,40.86622171627413,-73.91483991888835,user_5311,207 ST YARD,Manhattan,Tourist Attraction
1030,5199d906-4427-4586-959e-71c525bec475,2025-04-08T08:58:00,40.82896002693593,-73.95291889607715,2025-04-08 09:57:00,40.82983556659543,-73.95344978967127,user_2550,RIVERSIDE PARK 146 & 147 BASEBALL FIELDS,Manhattan,Tourist Attraction
1031,d2d32d8c-be5e-4ad8-9ad0-9e33c24eaf1f,2025-04-08T08:11:00,40.81198746358421,-73.965325914261,2025-04-08 09:50:00,40.81233142137223,-73.96461940309833,user_6252,OVER THE TRACKS TENNIS COURTS,Manhattan,Tourist Attraction
1040,579861c7-18fd-442a-a4d3-c14335b5dab2,2025-04-08T08:23:00,40.79710628294788,-73.95144675522434,2025-04-08 10:22:00,40.79770679599169,-73.95188142837826,user_1758,CENTRAL PARK CHARLES A DANA DISCOVERY CENTER,Manhattan,Tourist Attraction
1041,0a8cb831-a5bb-4d15-9942-d084d6ea16ac,2025-04-08T08:36:00,40.79697184834367,-73.94948352554604,2025-04-08 10:02:00,40.797405542345956,-73.94967561431281,user_6501,DUKE ELLINGTON CIRCLE,Manhattan,Tourist Attraction
1042,24dd4d6b-f318-4372-bf6f-a40d4855c19a,2025-04-08T10:53:00,40.794249985220695,-73.95194796529029,2025-04-08 11:55:00,40.79484451968658,-73.95278057061155,user_4592,CENTRAL PARK UNTERMYER FOUNTAIN,Manhattan,Tourist Attraction
1043,d0936d03-d6ac-4ecb-a339-3f7296fbe42b,2025-04-08T06:12:00,40.77891419936428,-73.96667151386927,2025-04-08 07:24:00,40.77974437928538,-73.96752565375658,user_6185,CENTRAL PARK KING JAGIELLO STATUE,Manhattan,Tourist Attraction
1044,29c30961-91a6-4bc4-a3c1-d426eef578d2,2025-04-08T10:02:00,40.77751176704514,-73.97279729093525,2025-04-08 11:38:00,40.77668424628892,-73.97252256282405,user_4918,CENTRAL PARK HERNSHEAD,Manhattan,Tourist Attraction
1045,4190a2d6-7840-44ba-9fa4-f9c6d7ab05ca,2025-04-08T10:26:00,40.72650648239737,-73.98785123455066,2025-04-08 12:15:00,40.72647456723701,-73.98792330741408,user_5735,9 PRECINCT,Manhattan,Tourist Attraction
1062,5f686c2f-3477-4925-91a2-cabb898866e6,2025-04-08T09:12:00,40.81833065315508,-73.95221291071175,2025-04-08 10:21:00,40.81805364920412,-73.95225872456656,user_2047,ANNUNCIATION PLAYGROUND,Manhattan,Tourist Attraction
1066,a380bf55-05a1-459b-93b0-99946a2021e2,2025-04-08T10:40:00,40.72283839757131,-73.97546446854533,2025-04-08 12:13:00,40.72213009829439,-73.97497763503978,user_9405,RIIS 2 HOUSES,Manhattan,Tourist Attraction
1070,ff21cb17-7673-42f9-9b13-6dd1fb69923b,2025-04-08T07:44:00,40.80436967475517,-73.95242163997895,2025-04-08 08:29:00,40.80456227946094,-73.95244569731344,user_4821,LACRETIALAMB SENIOR CENTER,Manhattan,Tourist Attraction
1073,3050533f-f20e-4051-ac48-e2e4c4850abb,2025-04-08T08:35:00,40.76258159460684,-73.98433118266196,2025-04-08 10:20:00,40.76223289136994,-73.98404519312128,user_5429,TIMES SQUARE CHURCH,Manhattan,Tourist Attraction
1076,266b4415-c9c6-4a38-920a-0a81e9e02273,2025-04-08T09:54:00,40.78975832081944,-73.95133379951791,2025-04-08 10:51:00,40.78974874401942,-73.95040313073366,user_7204,CARVER HOUSES,Manhattan,Tourist Attraction
1081,48210c6f-ae37-4eff-be84-b8e833524def,2025-04-08T09:32:00,40.71745696454089,-73.99373355025357,2025-04-08 11:27:00,40.71698461973027,-73.99346758456669,user_7099,HESTER STREET PLAYGROUND,Manhattan,Tourist Attraction
1084,733142fb-0e31-422a-ab6e-2d1df6fbc70e,2025-04-08T06:04:00,40.85616810372812,-73.93862605018508,2025-04-08 07:19:00,40.85664276606418,-73.93794410897642,user_3265,BENNETT REST,Manhattan,Tourist Attraction
1107,19d8184e-a7bf-42cd-aa21-06b2d6cf1c5e,2025-04-08T07:35:00,40.73450008482849,-73.99516513579978,2025-04-08 08:37:00,40.73431915778587,-73.99534958067173,user_7952,FIRST PRESBYTERIAN CHURCH,Manhattan,Tourist Attraction
1109,6b5d835a-47e0-4f79-8827-fb56c12c6955,2025-04-08T08:42:00,40.72206497371013,-73.97674342846207,2025-04-08 09:17:00,40.722185314826824,-73.97740877058187,user_2411,WALD HOUSES BUILDING 5,Manhattan,Tourist Attraction
1113,6a853f8a-25c8-4cb1-b829-77ef77990c8a,2025-04-08T07:08:00,40.72562563376377,-73.97304428307862,2025-04-08 08:56:00,40.72491035765335,-73.97344706595065,user_6766,RIIS HOUSES BUILDING 5,Manhattan,Tourist Attraction
1115,ae5ce194-625c-46d3-bed7-a278ce0b9cd1,2025-04-08T06:56:00,40.747845529815905,-74.00616791005561,2025-04-08 07:46:00,40.74742831271952,-74.00614850342379,user_3366,DIA ART FOUNDATION CHELSEA GALLERY,Manhattan,Tourist Attraction
1119,22950bfe-fabe-4187-8f0d-98adff23cd6a,2025-04-08T10:35:00,40.7537749799015,-73.98032148941451,2025-04-08 11:20:00,40.75296949667822,-73.98011552271751,user_7954,CHABAD LUBAVITCH OF MIDTOWN,Manhattan,Tourist Attraction
1120,a422d52e-a258-4a0b-b0bd-369139f2586c,2025-04-08T10:06:00,40.74192503962376,-73.97842787654378,2025-04-08 11:33:00,40.74158781772389,-73.97795486185746,user_8227,VINCENT F ALBANO JR PLAYGROUND,Manhattan,Tourist Attraction
1129,51dac2dc-fa9f-482d-b0a9-b5881cb2c689,2025-04-08T10:22:00,40.813007033421286,-73.96216680805857,2025-04-08 12:20:00,40.81234216399331,-73.96172725247354,user_9453,SAKURA PARK,Manhattan,Tourist Attraction
1130,9244a981-b936-4058-9e58-6cbe91dad9a9,2025-04-08T09:36:00,40.794767032825064,-73.94725333427643,2025-04-08 11:16:00,40.795741700014894,-73.94788797674171,user_4107,PETER MINUIT PLAYGROUND,Manhattan,Tourist Attraction
1131,7a0eef04-4c93-4e11-b5fd-f3b73bededab,2025-04-08T10:33:00,40.813657863490995,-73.93871796701369,2025-04-08 12:14:00,40.81426162914151,-73.9389189456952,user_6041,HOWARD BENNETT PLAYGROUND,Manhattan,Tourist Attraction
1132,ad98a448-b75b-4b97-9f67-cd4d5b97b22c,2025-04-08T06:12:00,40.781742269207086,-73.97844549725826,2025-04-08 08:08:00,40.78206850230538,-73.9780077427445,user_6065,TECUMSEH PLAYGROUND,Manhattan,Tourist Attraction
1133,3b5db70c-00ef-4064-afad-b1157b55c4c9,2025-04-08T09:03:00,40.73033381679314,-73.97356498002594,2025-04-08 10:55:00,40.73091398285724,-73.97377506501203,user_4799,MURPHY BROTHERS PLAYGROUND,Manhattan,Tourist Attraction
1134,1c3a9dfa-0bb1-4896-bd41-42da41cdb287,2025-04-08T09:02:00,40.80087531230075,-73.96374958942903,2025-04-08 11:02:00,40.80117125882841,-73.96424673394978,user_1910,BOOKER T WASHINGTON PLAYGROUND,Manhattan,Tourist Attraction
1170,841be065-d30b-4b2f-9ffe-156bf1b47421,2025-04-08T10:27:00,40.72823231264593,-73.9797530469075,2025-04-08 11:16:00,40.72876966584512,-73.98017722379025,user_6228,JOSEPH C SAUER PARK,Manhattan,Tourist Attraction
1171,32328b59-62a1-46bf-a5c9-c6324cc98ffa,2025-04-08T08:23:00,40.79922104210567,-73.966191201658,2025-04-08 09:58:00,40.799781101198285,-73.96618227119026,user_4858,BLOOMINGDALE PLAYGROUND,Manhattan,Tourist Attraction
1173,0b53d7b6-fbab-4e5e-945f-710327bc9964,2025-04-08T08:42:00,40.789351178023175,-73.93818807621855,2025-04-08 10:40:00,40.78887497241911,-73.93911707108795,user_9008,EAST RIVER PLAYGROUND,Manhattan,Tourist Attraction
1175,f8e34509-6f91-4920-a78d-e2e9ff23196f,2025-04-08T10:58:00,40.800895928938026,-73.93078362755924,2025-04-08 12:24:00,40.80133787559081,-73.93111979756442,user_7993,LOUIS CUVILLIER PARK,Manhattan,Tourist Attraction
1182,33c0d7fd-5e73-4a71-85d4-46d7c0111c54,2025-04-08T10:42:00,40.80114925903444,-73.96292917840877,2025-04-08 11:52:00,40.80100661935827,-73.96278540917123,user_4302,ANIBAL AVILES PLAYGROUND,Manhattan,Tourist Attraction
1210,85403a7b-5fef-4fbf-b991-9f077fc8f255,2025-04-08T10:36:00,40.829177406350446,-73.93658546395315,2025-04-08 11:51:00,40.82819113067674,-73.93652220007004,user_5302,HOLCOMBE RUCKER PARK PLAYGROUND,Manhattan,Tourist Attraction
1211,bca2672c-1fd3-4687-9a4a-21b75af3d702,2025-04-08T09:11:00,40.791673171670226,-73.94592792610167,2025-04-08 10:08:00,40.79140310983647,-73.94621292988145,user_3554,WHITE PLAYGROUND,Manhattan,Tourist Attraction
1212,be583d1e-4d67-495e-a828-3feb5c14575d,2025-04-08T10:11:00,40.735706125673275,-73.98218972635793,2025-04-08 11:57:00,40.73501146028672,-73.98182444275837,user_8168,AUGUSTUS ST GAUDENS PLAYGROUND,Manhattan,Tourist Attraction
1214,0cbb1645-aa8e-4a8a-9a84-8454b3971b5c,2025-04-08T10:48:00,40.80244529665598,-73.9416307264797,2025-04-08 12:08:00,40.803336996366525,-73.94228565911428,user_2136,EUGENE MCCABE FIELD,Manhattan,Tourist Attraction
1215,044d7aeb-e404-40fa-a5a3-9d5c5b5796e3,2025-04-08T07:59:00,40.71228844125884,-73.99744917106086,2025-04-08 09:47:00,40.71213793192328,-73.99726806136786,user_8999,PLAYGROUND ONE,Manhattan,Tourist Attraction
1233,0a4e4cc6-d727-4a13-b445-896a99456fe6,2025-04-08T09:42:00,40.71398318428355,-73.98153775712106,2025-04-08 10:24:00,40.714637708953795,-73.98102292554776,user_3111,HENRY M JACKSON PLAYGROUND,Manhattan,Tourist Attraction
1234,9e0b10b0-414d-414d-bb46-e46dee1faadd,2025-04-08T07:37:00,40.719493294439374,-73.98411296258313,2025-04-08 09:14:00,40.71899773341334,-73.98482239562327,user_4910,NATHAN STRAUS PLAYGROUND,Manhattan,Tourist Attraction
1235,820aa420-8527-4312-bb8a-8cf8619de690,2025-04-08T09:44:00,40.778576232325115,-73.94429177499778,2025-04-08 11:11:00,40.77889201487051,-73.94382489652577,user_7036,ASPHALT GREEN FIELD UPPER EAST SIDE,Manhattan,Tourist Attraction
1236,385c3f30-da85-4327-bb83-265de85e8699,2025-04-08T10:26:00,40.78091341676809,-73.95020988272515,2025-04-08 12:26:00,40.78046956856405,-73.95015973952029,user_1026,RUPPERT PARK,Manhattan,Tourist Attraction
1237,a7f837bf-a399-4f25-bb71-31a9abd17c2c,2025-04-08T09:27:00,40.723497979093004,-73.9895807592122,2025-04-08 10:40:00,40.72277276527573,-73.98938513569634,user_2655,FIRST PARK,Manhattan,Tourist Attraction
1241,59f18a80-4464-4082-9d95-a98be91022c2,2025-04-08T07:28:00,40.76142020524225,-73.9927335001281,2025-04-08 09:13:00,40.76105290742761,-73.99237120935841,user_1544,MATHEWS PALMER PLAYGROUND,Manhattan,Tourist Attraction
1242,c9ac09bc-73f0-4bc3-a5be-2a8e4b20f485,2025-04-08T06:14:00,40.73615837566514,-73.98164225754901,2025-04-08 07:14:00,40.73546858896732,-73.98163318168362,user_8136,PETER'S FIELD,Manhattan,Tourist Attraction
1243,6bcddcec-030d-4260-bd09-2c3b23c5aed8,2025-04-08T10:06:00,40.73639098339273,-74.00548393213461,2025-04-08 11:11:00,40.73622831763296,-74.00578891996312,user_1985,BLEECKER PLAYGROUND,Manhattan,Tourist Attraction
1244,b999264a-65ba-4ee1-a834-4d6a1d56a926,2025-04-08T08:35:00,40.82313134689104,-73.95129307111503,2025-04-08 09:23:00,40.82306466592244,-73.95081872015457,user_4944,ALEXANDER HAMILTON PLAYGROUND,Manhattan,Tourist Attraction
1245,4f475aa7-4b18-4440-8d0a-7fa17969a4b6,2025-04-08T07:52:00,40.78540944869962,-73.95082914932682,2025-04-08 09:33:00,40.78620972005931,-73.95006393066886,user_3848,SAMUEL SEABURY PLAYGROUND,Manhattan,Tourist Attraction
1246,ec2f920f-2d45-4111-87cc-dd548072e020,2025-04-08T08:44:00,40.77218282413711,-73.9778130586848,2025-04-08 09:35:00,40.77212675023907,-73.9776829089267,user_2241,TAVERN ON THE GREEN,Manhattan,Tourist Attraction
1247,bce7e4d8-400b-4a36-830c-8d00aa3fb784,2025-04-08T09:39:00,40.76403116555366,-73.97361778591305,2025-04-08 11:18:00,40.764445226670134,-73.97284251009131,user_3973,PULITZER FOUNTAIN,Manhattan,Tourist Attraction
1248,17fec77a-a554-4d99-92c2-ec6b82feb01f,2025-04-08T07:35:00,40.71110983041802,-73.97781379873683,2025-04-08 09:17:00,40.71125249472404,-73.97716903620861,user_6603,EAST RIVER PARK AMPHITHEATER,Manhattan,Tourist Attraction
1249,76154827-0d84-4c6c-8ec0-d729f02f11f5,2025-04-08T08:48:00,40.712364438439884,-74.00159832095306,2025-04-08 10:20:00,40.71179852351822,-74.00212756979586,user_5001,ONE POLICE PLAZA HELIPORT,Manhattan,Tourist Attraction
1259,c6ea9a33-f5e2-4546-9681-bb7de5f973d9,2025-04-08T06:37:00,40.84510588852856,-73.93646931489891,2025-04-08 07:27:00,40.844556044232434,-73.93556691189201,user_8323,CHURCH OF THE INCARNATION RC,Manhattan,Tourist Attraction
1264,8c8a9f57-6f85-456f-baf2-efa63818366d,2025-04-08T08:55:00,40.781064857340674,-73.97355951962615,2025-04-08 10:14:00,40.78097365810358,-73.97355685483782,user_2099,AMERICAN MUSEUM OF NATURAL HISTORY,Manhattan,Tourist Attraction
1275,2520eb4f-e7be-4c9b-b588-e50c0b42f7ef,2025-04-08T07:40:00,40.76362536022399,-73.96612721036432,2025-04-08 09:24:00,40.76401077293612,-73.96631842841286,user_2067,METROPOLITAN KORYO UNITED METHODIST CHURCH,Manhattan,Tourist Attraction
1277,949b7d70-096e-45fc-98bd-bf968d8d62b5,2025-04-08T09:16:00,40.79527597069767,-73.96426852719715,2025-04-08 09:56:00,40.795473644100866,-73.96469073037103,user_6011,DOUGLASS 1 PROJECTS BLDG 5,Manhattan,Tourist Attraction
1278,150ac6e6-ab7d-4636-9d0a-d545bd376caf,2025-04-08T08:23:00,40.76277184062325,-73.96905550452327,2025-04-08 10:05:00,40.76246865820412,-73.96936112662712,user_3357,LIGHTHOUSE INTERNATIONAL SOL & LILLIAN GOLDMAN BUILDING,Manhattan,Tourist Attraction
1283,ab967d7c-2ac1-4da3-91b8-979fe9e76e1c,2025-04-08T09:10:00,40.785261419221825,-73.94225399560203,2025-04-08 11:02:00,40.78558180592488,-73.94184408010184,user_4599,RENAISSANCE CHARTER HIGH SCHOOL FOR INNOVATION,Manhattan,Tourist Attraction
1289,8956bb32-44a7-4749-a77d-e295e042d30d,2025-04-08T10:46:00,40.797323752077936,-73.94962095265875,2025-04-08 12:27:00,40.797666796472306,-73.95005208327343,user_2551,LA HERMOSA CHRISTIAN CHURCH,Manhattan,Tourist Attraction
1291,a9eb1d42-31d3-4d33-9f1d-6bf246b8d9b8,2025-04-08T08:06:00,40.80310949481683,-73.95302939944244,2025-04-08 08:50:00,40.80334612186762,-73.95215369230661,user_4314,FIRST CORINTHIAN BAPTIST CHURCH,Manhattan,Tourist Attraction
1302,45899e1f-4f26-454b-a3e5-58caf9feec7b,2025-04-08T08:08:00,40.75291145029289,-73.99418761418657,2025-04-08 08:44:00,40.752813149551194,-73.99330757911865,user_2282,MANHATTAN CTR AUDITORIUM,Manhattan,Tourist Attraction
1304,f7b83c0c-29bf-4c5b-81e1-d71745e02372,2025-04-08T06:32:00,40.74914745501842,-73.9794855761164,2025-04-08 07:36:00,40.748968899531455,-73.97871914225354,user_2745,GUATEMALA MISSION TO UN,Manhattan,Tourist Attraction
1305,6d68fe0b-a1c3-4709-b3f6-a49a80aa074e,2025-04-08T07:47:00,40.749649866567054,-73.97484634399822,2025-04-08 09:35:00,40.749103360763336,-73.9746039010057,user_4330,SWITZERLAND CONSULATE,Manhattan,Tourist Attraction
1306,0620b542-45f8-42b9-b2a9-a65e2c09a94a,2025-04-08T09:41:00,40.75756880000209,-73.97611156921405,2025-04-08 11:34:00,40.758367846908044,-73.97687105176546,user_7369,FRENCH TOURIST OFC,Manhattan,Tourist Attraction
1309,f6481006-42ac-4baf-9417-a525e9b6d4d0,2025-04-08T08:37:00,40.75236873066033,-73.96600043719592,2025-04-08 10:02:00,40.753256392455455,-73.96562327789754,user_3944,PANAMA MISSION TO THE UN,Manhattan,Tourist Attraction
1310,d3095a21-4ac2-4257-9124-a4bca9c3df23,2025-04-08T10:33:00,40.75231619762609,-73.96588809198069,2025-04-08 11:36:00,40.75286292909384,-73.96604709062143,user_3021,KENYA CONSULATE,Manhattan,Tourist Attraction
1311,f2817f13-0412-4b39-8cda-3094c8b08709,2025-04-08T07:28:00,40.752434999862025,-73.9661491733975,2025-04-08 08:52:00,40.75298717850212,-73.96593847196652,user_9309,HONDURAS MISSION 5 FL,Manhattan,Tourist Attraction
1312,63f8ff1b-7940-43aa-95ba-740797c4dee5,2025-04-08T08:57:00,40.753323601763945,-73.97006335263006,2025-04-08 10:31:00,40.75342091886681,-73.96972844768736,user_4549,SWEDEN MISSION TO UN,Manhattan,Tourist Attraction
1313,91bb43bd-6de7-4ab8-bddf-c54fb2c543fd,2025-04-08T09:18:00,40.79707307761871,-73.93684994276877,2025-04-08 10:59:00,40.796811166694376,-73.93757734489328,user_4080,CORSI PROJECTS,Manhattan,Tourist Attraction
1314,55068453-e641-4546-a539-9730b9e49a62,2025-04-08T09:20:00,40.71004620861285,-74.00542093852025,2025-04-08 10:10:00,40.70961787379217,-74.00462029345302,user_6864,WALL ST SYNAGOGUE,Manhattan,Tourist Attraction
1315,6aea58e5-d4a0-4481-b170-0a10d72bbe9f,2025-04-08T08:22:00,40.742170804590806,-73.97426550014957,2025-04-08 10:04:00,40.74293583575438,-73.97423897142076,user_7893,NYU LANGONE MEDICAL CENTER,Manhattan,Tourist Attraction
1318,35ce763c-530f-4a9c-a4c8-34f2f6a5a31e,2025-04-08T07:03:00,40.81017876747338,-73.96058701650726,2025-04-08 08:28:00,40.809868247869574,-73.96108082550002,user_5012,RITA GOLD EARLY CHILDHOOD CENTER,Manhattan,Tourist Attraction
1319,2cf40513-bace-4960-8def-9e134f1b0419,2025-04-08T06:32:00,40.72013268997879,-74.00485889945347,2025-04-08 07:39:00,40.71977737224995,-74.00535275400306,user_6265,TBPD DIST 02,Manhattan,Tourist Attraction
1320,5390d1b8-1e38-47dd-b6e5-1efaf6798b7e,2025-04-08T07:23:00,40.80830170517442,-73.96088360345948,2025-04-08 09:20:00,40.80900943178262,-73.96026394567731,user_7631,COLUMBIA UNIVERSITY AVERY HALL,Manhattan,Tourist Attraction
1329,5c231f2e-db7d-4bdf-b661-29c174b8045c,2025-04-08T07:36:00,40.84264437721421,-73.93432063507106,2025-04-08 08:19:00,40.843280398829236,-73.93410395633002,user_5454,HIGH BRIDGE PLAY CENTER,Manhattan,Tourist Attraction
1345,d54f7c11-41a4-4565-b63d-b7c1059a85d9,2025-04-08T09:06:00,40.71106125752412,-74.04514374003392,2025-04-08 10:07:00,40.71024335832312,-74.04558395066869,user_2765,MORRIS CANAL BASIN,Manhattan,Tourist Attraction
1382,f8fe8cd4-bebc-4e6c-af55-bfdf88f53dad,2025-04-08T10:58:00,40.75935689417807,-73.97485861044613,2025-04-08 11:38:00,40.759477713118095,-73.97579638024796,user_5712,OMNI BERKSHIRE PLACE HOTEL,Manhattan,Tourist Attraction
1390,9c74a071-fa3d-4c98-a6bf-f665cc8733e9,2025-04-08T07:22:00,40.790585032638674,-73.94161235242188,2025-04-08 08:41:00,40.78965727669801,-73.94230134004812,user_1712,FRANKLIN PLAZA BUILDING 7 B,Manhattan,Tourist Attraction
1393,d11bdbea-0243-4686-a0ef-d1dca9393e34,2025-04-08T10:22:00,40.72301905724412,-73.96805510904592,2025-04-08 11:20:00,40.723153512599715,-73.96748211563524,user_3601,EAST RIVER MAIN CHANNEL LIGHTED BUOY 18,Manhattan,Tourist Attraction
1395,c5bf923d-a7fb-4f9b-b08d-6b8a09c28e9c,2025-04-08T09:34:00,40.69007952609542,-74.04150933269577,2025-04-08 11:08:00,40.68946468003297,-74.04202931480224,user_3523,LIBERTY ISLAND SECURITY ZONE BUOY LISZ1,Manhattan,Tourist Attraction
1410,8bfb3b74-cd29-4f53-b0c0-03d7e6ce5c23,2025-04-08T08:49:00,40.76583437299378,-73.97235740833491,2025-04-08 10:23:00,40.76621193368232,-73.9728760533127,user_7259,CENTRAL PARK WIEN WALK,Manhattan,Tourist Attraction
1413,bc6d6f20-451d-45ac-b3c2-5ec6dd10d38b,2025-04-08T08:49:00,40.85282062475489,-73.92695251715348,2025-04-08 09:40:00,40.85285685795068,-73.9275786771474,user_6431,RAOUL WALLENBERG PLAYGROUND,Manhattan,Tourist Attraction
1431,2de2c6fc-1196-462f-b5ee-d291defc4bf8,2025-04-08T07:55:00,40.800449736811295,-73.94415026909866,2025-04-08 08:29:00,40.80035841137449,-73.94482729323794,user_9631,PEACEFUL VALLEY COMMUNITY GARDEN,Manhattan,Tourist Attraction
1434,fa4059fc-6899-4a64-86a0-bc2e1f14322c,2025-04-08T06:46:00,40.80930117833688,-73.94268002039787,2025-04-08 07:34:00,40.80865644413661,-73.9420431173749,user_1889,UNITY PARK,Manhattan,Tourist Attraction
1435,c2c88312-ea5f-4c84-ab0d-8c06b9d9e8ec,2025-04-08T07:35:00,40.721700855833376,-73.99744324347114,2025-04-08 08:05:00,40.722101939303236,-73.99694926143815,user_4403,PETROSINO SQUARE,Manhattan,Tourist Attraction
1439,a2dcc815-ac0a-48db-a934-1d2f8e6b2523,2025-04-08T10:33:00,40.72230524211687,-74.00502835579195,2025-04-08 11:03:00,40.722242940109695,-74.00520119844879,user_2860,GRAND CANAL COURT,Manhattan,Tourist Attraction
1476,1c62f1f5-4123-4606-b30f-8efd2f62356c,2025-04-08T07:02:00,40.71472864685584,-73.98058792295143,2025-04-08 07:35:00,40.714994176269315,-73.97983481759667,user_7473,HILLMAN HOUSES,Manhattan,Tourist Attraction
1477,92c85985-f17e-4031-a955-dd505d74928e,2025-04-08T09:20:00,40.75736976663213,-73.97324083597293,2025-04-08 10:48:00,40.757161072005005,-73.97415119237151,user_6027,ST BARTHOLOMEWS CHURCH,Manhattan,Tourist Attraction
1478,5710e35d-de83-4a1a-8e7f-cb5829361237,2025-04-08T10:38:00,40.801604668351246,-73.93832085174053,2025-04-08 11:11:00,40.80089735059682,-73.9383141814094,user_6982,ELMENDORF REFORMED CHURCH,Manhattan,Tourist Attraction
1480,aa3dad62-bfb3-4a00-b126-7f8e6360b223,2025-04-08T09:34:00,40.80174287521376,-73.95226097557828,2025-04-08 10:21:00,40.80238334428385,-73.95181934396751,user_7350,ALL SOULS CHURCH WEST HARLEM,Manhattan,Tourist Attraction
1481,8a873448-cf68-42fe-8373-0ae4bcedbe33,2025-04-08T06:42:00,40.7153516139324,-73.9928632618287,2025-04-08 08:06:00,40.71576992947199,-73.99258456625704,user_9502,ENGINE 9 LADDER 6,Manhattan,Tourist Attraction
1484,28fda482-c6b8-40f6-9b3c-3e50a91d8779,2025-04-08T06:18:00,40.74715348850448,-74.00013289216801,2025-04-08 07:43:00,40.74649720404786,-74.00026074819337,user_3506,ST ELEFTHERIOS CHURCH,Manhattan,Tourist Attraction
1485,8268dc89-7134-4bcd-a928-326585a1ef1e,2025-04-08T06:49:00,40.76395310398842,-73.9877119525754,2025-04-08 08:48:00,40.76356588993077,-73.98762697627684,user_6097,IRVINGTON HALL APARTMENTS,Manhattan,Tourist Attraction
1493,a9c0f764-23b2-408c-9565-bb51f6e80d4c,2025-04-08T10:03:00,40.77392655739065,-73.98551852819591,2025-04-08 11:20:00,40.77464742274112,-73.9847814889699,user_8242,FIORELLO H LAGUARDIA HIGH SCHOOL OF MUSIC & ART & PERFORMING ARTS,Manhattan,Tourist Attraction
1494,52c288b6-413d-4977-8ca4-fca5d8ef8ec5,2025-04-08T09:57:00,40.828238437656964,-73.93869871564644,2025-04-08 11:24:00,40.8289085232252,-73.93857144944,user_4312,BETHANY BAPTIST CHURCH,Manhattan,Tourist Attraction
1495,f0f01a10-2973-41bf-8edb-74bf8ab9687f,2025-04-08T06:26:00,40.79915652820513,-73.96537322125653,2025-04-08 07:59:00,40.79837812912741,-73.96474858208009,user_4189,PS 145 BLOOMINGDALE SCHOOL,Manhattan,Tourist Attraction
1510,9435d107-fac0-4c2d-b95a-f03451130b02,2025-04-08T08:44:00,40.68694912524362,-74.04340905329002,2025-04-08 10:10:00,40.68602371988725,-74.04243395117798,user_1688,LIBERTY ISLAND SECURITY ZONE BUOY LISZ3,Manhattan,Tourist Attraction
1515,e3ac3cea-c246-4f0a-abce-8261841916dc,2025-04-08T07:57:00,40.68483365095696,-74.01471034584145,2025-04-08 09:40:00,40.68385325343742,-74.0150867239294,user_6205,BUTTERMILK CHANNEL,Manhattan,Tourist Attraction
1545,efd7bcd4-0f7e-4ca3-9108-21e1c9c03822,2025-04-08T09:21:00,40.771912701260334,-73.96214258432859,2025-04-08 10:12:00,40.77096351841751,-73.9630661522144,user_1863,BUCKLEY SCHOOL 74 STREET BUILDING,Manhattan,Tourist Attraction
1552,acb84f80-2146-44f4-9d8b-2cc1a2be859d,2025-04-08T06:20:00,40.72662838359661,-73.99003465356788,2025-04-08 07:44:00,40.72721900943099,-73.99025473137993,user_2157,NEW YORK THEATRE WORKSHOP,Manhattan,Tourist Attraction
1554,2d106361-b96d-4414-9e79-6cd9ab1e5609,2025-04-08T08:01:00,40.726494874359645,-73.99445358126712,2025-04-08 09:45:00,40.72708708431579,-73.99495162151028,user_5914,WOMENS SHELTER LAFAYETTE ST,Manhattan,Tourist Attraction
1561,8948fb11-ea78-47a9-9644-b0cb6221bdca,2025-04-08T06:47:00,40.81277875919459,-73.95635882492408,2025-04-08 07:55:00,40.813086352549234,-73.95641858782544,user_5286,GRANT HOUSES COMPLEX,Manhattan,Tourist Attraction
1565,2f147bb0-85d9-48cd-9471-05afb48cdf9d,2025-04-08T07:41:00,40.792171994122064,-73.94908712289107,2025-04-08 09:22:00,40.792161647080505,-73.94966458519708,user_1396,CARVER HOUSES BUILDING 11,Manhattan,Tourist Attraction
1566,c52064db-7fa3-45eb-8a53-cb7fde02fc81,2025-04-08T08:17:00,40.74683999387632,-73.98010288784904,2025-04-08 09:05:00,40.74608872444686,-73.980984136787,user_7455,MURRAY HILL POST OFFICE,Manhattan,Tourist Attraction
1567,de5b7ea2-2670-4685-9d65-c154a0a0d5b6,2025-04-08T08:32:00,40.73990012304453,-73.97596853126937,2025-04-08 09:53:00,40.74070974650034,-73.9751515400514,user_1038,EDUCARE EARLY CHILDHOOD CENTER,Manhattan,Tourist Attraction
1578,6519e2a2-1a93-4287-a026-f482eadbbe3c,2025-04-08T09:34:00,40.78116176764261,-73.98652484491821,2025-04-08 10:24:00,40.78197283100674,-73.98642263780042,user_1381,RIVERSIDE PARK W 72 ST DOG RUN,Manhattan,Tourist Attraction
1583,3ce8af6e-3003-4ef5-9c6d-789d1a5fe639,2025-04-08T10:09:00,40.79180561102138,-73.9106666394785,2025-04-08 11:23:00,40.79101615767057,-73.91083588403471,user_8412,EAST RIVER MAIN CHANNEL BUOY 13,Manhattan,Tourist Attraction
1606,403f8c59-3a23-4c45-95a5-db5a7ace9793,2025-04-08T08:31:00,40.78998598965034,-73.95175658288699,2025-04-08 10:17:00,40.78924489682017,-73.9518985007962,user_6026,CARVER HOUSES BUILDING 3,Manhattan,Tourist Attraction
1614,e114794c-0df7-4274-a383-08c2b70eadd4,2025-04-08T10:12:00,40.74509306822867,-73.98977831864978,2025-04-08 11:57:00,40.74568028611244,-73.98918831194786,user_6259,SENTON HOTEL,Manhattan,Tourist Attraction
1622,52829a87-581a-4725-ace5-71bf3078f038,2025-04-08T08:27:00,40.80452711840524,-73.93836920451014,2025-04-08 10:05:00,40.805518770785255,-73.93827610667292,user_9460,NORTHERN MANHATTAN NURSING HOME,Manhattan,Tourist Attraction
1625,0dbd5d50-ff83-4782-a900-90fea2342ee0,2025-04-08T10:56:00,40.742437629066075,-74.00213693964048,2025-04-08 12:00:00,40.74275318685021,-74.00289744216687,user_8253,NYC LAB SCHOOL FOR COLLABORATIVE STUDIES,Manhattan,Tourist Attraction
1627,36da6137-00da-42c0-a32d-e99b76b30f30,2025-04-08T07:21:00,40.7347587617157,-73.97677226187875,2025-04-08 08:11:00,40.73485383749833,-73.97596131676845,user_8424,PETER COOPER VILLAGE - 4 PCR,Manhattan,Tourist Attraction
1629,0473388c-edc3-4045-b2ab-a1c585f1e10f,2025-04-08T08:06:00,40.789690537506225,-73.97217877355814,2025-04-08 09:34:00,40.789965196848755,-73.97282007333203,user_1873,ST GREGORY SCHOOL,Manhattan,Tourist Attraction
1640,5b80b495-b5a9-4194-991b-379f31b55d55,2025-04-08T09:18:00,40.80743116894131,-73.96390828876108,2025-04-08 10:59:00,40.80724604530009,-73.96405812318207,user_2146,COLUMBIA UNIVERSITY FURNALD HALL,Manhattan,Tourist Attraction
1641,8f5a456d-7feb-418b-a542-3e9514c177a6,2025-04-08T10:06:00,40.71757090060714,-73.979451043736,2025-04-08 11:24:00,40.71657782294765,-73.97891296346603,user_5219,DEWITT REFORMED CHURCH HS RIVINGTON ST,Manhattan,Tourist Attraction
1645,bb7cf370-3c45-4fb3-a805-a670fbd91f84,2025-04-08T09:28:00,40.750774002589225,-73.97084086210631,2025-04-08 10:19:00,40.75068860925572,-73.97033295547828,user_2994,EGYPT MISSION TO UN,Manhattan,Tourist Attraction
1646,63152358-42e2-42b8-9c6a-5c75f25c2f3c,2025-04-08T09:31:00,40.70123505758382,-74.01551154378045,2025-04-08 10:48:00,40.70077879879886,-74.01629077275521,user_3629,ADMIRAL DEWEY PROMENADE,Manhattan,Tourist Attraction
1647,26e50874-0303-4cb9-848a-170572861a37,2025-04-08T07:50:00,40.80416093103455,-73.95326938349342,2025-04-08 09:48:00,40.80507431444464,-73.95248873810888,user_8416,CITIZENS CARE DAY CARE CENTER ST NICHOLAS AV,Manhattan,Tourist Attraction
1648,544f8dd3-54c7-4def-9d74-ba73ec804588,2025-04-08T09:01:00,40.75921612815796,-73.97196376601792,2025-04-08 09:36:00,40.759154149510636,-73.97224548667866,user_8523,THE CITIGROUP CHILDRENS CENTER AT 399 PARK AV,Manhattan,Tourist Attraction
1652,78e8b64d-c58a-4620-9137-aa59195b6573,2025-04-08T09:19:00,40.71134335565484,-74.00177825016996,2025-04-08 11:11:00,40.7108335202122,-74.0013558700866,user_3092,MURRY BERGTRAUM HIGH SCHOOL FOR BUSINESS CAREERS,Manhattan,Tourist Attraction
1653,1fd26ea7-9901-46bf-855a-7cf8c3a908e6,2025-04-08T08:45:00,40.76850421734801,-73.98966104790111,2025-04-08 10:04:00,40.76911965061934,-73.99001080503925,user_6029,JOHN JAY COLLEGE WESTPORT BUILDING,Manhattan,Tourist Attraction
1655,72fe00e2-0314-46d7-af4e-eae9e853692e,2025-04-08T10:58:00,40.71962144853256,-74.00660929484621,2025-04-08 12:01:00,40.7188708152757,-74.0056533327047,user_2293,LADDER 8,Manhattan,Tourist Attraction
1658,c60dc43b-4206-4a82-a469-b20e8b4e6c7c,2025-04-08T08:27:00,40.78826771779075,-73.96749838668278,2025-04-08 10:21:00,40.78849936235519,-73.96767762338315,user_7737,EL DORADO CO-OP BUILDING,Manhattan,Tourist Attraction
1663,2934b3cd-48c0-4671-a2de-cd55bfbd0039,2025-04-08T07:26:00,40.78745257586527,-73.96803457674791,2025-04-08 09:07:00,40.787574407872114,-73.96807781408215,user_8352,DWIGHT SCHOOL 291 CENTRAL PARK W,Manhattan,Tourist Attraction
1664,908a02d4-c455-44e8-b883-e3363c31654e,2025-04-08T07:57:00,40.7622318524586,-73.98071439409276,2025-04-08 08:51:00,40.761260581083654,-73.98044912357288,user_2114,MTA CENTRAL SUBSTATION,Manhattan,Tourist Attraction
1666,12aa5cb4-4d66-435c-9731-a5eb6cea5c2e,2025-04-08T08:55:00,40.75370413776324,-73.97266225481468,2025-04-08 10:48:00,40.752908984076896,-73.97354386218322,user_5160,POLAND MISSION TO UN,Manhattan,Tourist Attraction
1669,d2f603ae-778a-4cba-837f-ada0f1b9ead8,2025-04-08T06:27:00,40.75066636273383,-74.0093270475315,2025-04-08 07:10:00,40.750896989370254,-74.01013572310524,user_8502,PIER 64,Manhattan,Tourist Attraction
1670,50836632-5d6a-4fb2-8ea2-fab277824a41,2025-04-08T06:47:00,40.713045509696165,-73.98147344576454,2025-04-08 07:46:00,40.71238583452688,-73.9820342848307,user_8053,VLADECK HOUSES BUILDING 15,Manhattan,Tourist Attraction
1671,f403a632-1600-49da-93e5-2d47c5e32333,2025-04-08T10:04:00,40.792722206933945,-73.97279035371803,2025-04-08 12:00:00,40.7918245013211,-73.97234631333203,user_4942,ADVENT LUTHERAN CHURCH,Manhattan,Tourist Attraction
1672,8907f682-32d4-4be6-a576-3952802fb6ac,2025-04-08T06:41:00,40.77730727528539,-73.98112834135031,2025-04-08 07:45:00,40.77632777680723,-73.98059437867538,user_1509,BLESSED SACRAMENT CHURCH,Manhattan,Tourist Attraction
1673,799e3edc-2803-4169-976f-537e4866dd8a,2025-04-08T09:57:00,40.747830537658366,-73.9813942153652,2025-04-08 11:04:00,40.74719805443391,-73.98119334182945,user_1437,METROPOLITAN SYNAGOGUE NY,Manhattan,Tourist Attraction
1676,fb7cfd85-8292-40cb-bfb0-41a44e0709d1,2025-04-08T09:30:00,40.73904788276697,-73.9782748934099,2025-04-08 11:09:00,40.73910121526427,-73.97907052859597,user_6616,THE ACORN SCHOOL,Manhattan,Tourist Attraction
1680,87758626-7d68-44cf-984e-5e9049ea81db,2025-04-08T07:25:00,40.75238906674329,-73.96604733104583,2025-04-08 08:52:00,40.751969925468764,-73.96572985275675,user_7464,FINLAND CONSULATE 15 FL,Manhattan,Tourist Attraction
1687,67fa2b1c-83b8-4650-a3c0-0083a5966701,2025-04-08T09:19:00,40.76117732794409,-73.97881878667778,2025-04-08 11:19:00,40.76072976814175,-73.97899095571721,user_8046,CBS BUILDING,Manhattan,Tourist Attraction
1688,5d056299-af9d-4292-9707-39837a113daf,2025-04-08T08:30:00,40.708639427908,-74.01266392807376,2025-04-08 10:15:00,40.70828324147457,-74.01344413234428,user_1894,AMERICAN STOCK EXCHANGE BUILDING,Manhattan,Tourist Attraction
1699,8c4c4504-87bf-4cf5-a965-0736df7a82d0,2025-04-08T07:36:00,40.749994360081885,-73.97340774257317,2025-04-08 08:42:00,40.74991408210226,-73.97312687417157,user_4479,DAILY NEWS BUILDING,Manhattan,Tourist Attraction
1700,a695b02b-f7f1-42de-ba54-6831bfa1c899,2025-04-08T08:09:00,40.7064384167276,-74.00155219524379,2025-04-08 08:43:00,40.705639614437665,-74.00181957757654,user_4446,FULTON FISH MARKET,Manhattan,Tourist Attraction
1701,7fa54665-5663-481a-a44f-5a88d7610855,2025-04-08T09:08:00,40.755228207199835,-73.9742011452506,2025-04-08 09:45:00,40.7551580718211,-73.97365121202289,user_2581,CHASE BANK PARK AV,Manhattan,Tourist Attraction
1702,78e8a0fb-e5f4-400a-8c37-429e69c9aa6e,2025-04-08T09:57:00,40.70867479149758,-74.01012375667028,2025-04-08 11:48:00,40.708486744193884,-74.01040015120331,user_9750,MARINE MIDLAND BUILDING,Manhattan,Tourist Attraction
1705,2bc3fecc-24cd-489b-a380-35bd5fc4b3be,2025-04-08T09:29:00,40.801748068380796,-73.96632125643053,2025-04-08 11:06:00,40.801653477469195,-73.96684284418262,user_4493,ABSW SENIOR CITIZENS CENTER,Manhattan,Tourist Attraction
1706,448b8381-9dab-4a64-929c-6c60c4a60946,2025-04-08T10:30:00,40.77896220040125,-73.97982536761543,2025-04-08 12:06:00,40.779367114955114,-73.9805356732923,user_3071,HAMILTON SENIOR CENTER,Manhattan,Tourist Attraction
1707,ca600664-7ea8-4e39-a9ca-f99d61c3e93c,2025-04-08T10:57:00,40.800736227038115,-73.96148405844055,2025-04-08 11:55:00,40.800963392671505,-73.96179653619397,user_5433,BLOOMINGDALE PROJECT HOPE,Manhattan,Tourist Attraction
1708,e491983f-69f2-420a-985b-6724896db092,2025-04-08T08:16:00,40.78807499074201,-73.93904186072967,2025-04-08 09:44:00,40.787419574494784,-73.93845457646805,user_6490,EAST RIVER HOUSES BUILDING 5,Manhattan,Tourist Attraction
1720,b43d7232-e159-4af9-9a79-7ad1cc39309b,2025-04-08T07:39:00,40.83309439398953,-73.93756477820757,2025-04-08 08:42:00,40.83404396016035,-73.93720820545873,user_8142,RANGEL HOUSES BUILDING 4,Manhattan,Tourist Attraction
1721,0322d4ad-c9d9-4a6b-9add-8f48b3862069,2025-04-08T08:00:00,40.75808625161594,-73.99118447758508,2025-04-08 09:42:00,40.759016372417506,-73.991238465154,user_5618,HOLY CROSS CHURCH,Manhattan,Tourist Attraction
1724,ad5b0eb4-9f05-4b8e-abe1-04a9e4162586,2025-04-08T09:38:00,40.73261973850067,-73.99682747324178,2025-04-08 11:05:00,40.73356299887168,-73.99613790699685,user_8841,MARLTON HOTEL,Manhattan,Tourist Attraction
1725,2ff91ee6-b778-44c8-933c-c5c3bbb70231,2025-04-08T08:50:00,40.72131999446559,-73.99054511476099,2025-04-08 09:34:00,40.72050998246882,-73.99055593203757,user_1822,LOWER EAST SIDE I BUILDING 3,Manhattan,Tourist Attraction
1728,2d0a9683-cedc-48fc-b34c-ffe807808509,2025-04-08T09:03:00,40.79557407951805,-73.97225909542726,2025-04-08 10:32:00,40.79573662482861,-73.97277507714767,user_7083,ROYAL PARK HOTEL,Manhattan,Tourist Attraction
1730,ab530ec2-44c4-45ce-8024-7a288cb95b0a,2025-04-08T06:52:00,40.70571502839744,-74.00245198452852,2025-04-08 08:36:00,40.705423836751905,-74.00303767573209,user_5161,SOUTH STREET SEAPORT,Manhattan,Tourist Attraction
1731,11877ece-52ec-4c6e-8564-9a1081a7e2ea,2025-04-08T08:36:00,40.79247428415964,-73.94995256274464,2025-04-08 10:25:00,40.79238911120877,-73.9496775393986,user_6657,CARVER HOUSES BUILDING 10,Manhattan,Tourist Attraction
1734,294b2daa-090f-410e-a33f-6c15163766a8,2025-04-08T10:31:00,40.7851653583369,-73.94200034313472,2025-04-08 12:12:00,40.785210908988745,-73.9424744132639,user_3869,MS 224 MANHATTAN EAST SCHOOL FOR ARTS & ACADEMICS,Manhattan,Tourist Attraction
1739,b9a795c6-21fc-407b-873f-c60f5ead164c,2025-04-08T08:53:00,40.76601003079657,-73.95516585655446,2025-04-08 09:42:00,40.76511011675176,-73.95454271960463,user_8420,WILLIAM WOODWARD JR NURSERY SCHOOL,Manhattan,Tourist Attraction
1743,4a451dfd-9376-4f4d-8fc2-64fe8d2d19c2,2025-04-08T08:35:00,40.70529448074466,-74.0021028676415,2025-04-08 09:43:00,40.70479243543234,-74.00260195027046,user_1324,SOUTH ST SHIPYARD,Manhattan,Tourist Attraction
1744,3ee0e03e-6ec6-430d-9cbe-1a35b202fa0f,2025-04-08T09:08:00,40.731995961833846,-73.99093864629803,2025-04-08 09:51:00,40.73118586731548,-73.99055547243724,user_1034,GRACE CHURCH,Manhattan,Tourist Attraction
1747,c0e254ee-b2d0-4c2e-9b5a-58df99d124ae,2025-04-08T08:03:00,40.74597200829399,-73.97928173706002,2025-04-08 09:18:00,40.74513552963849,-73.97996140098361,user_9610,MURRAY HILL MARQUIS,Manhattan,Tourist Attraction
1748,01558d2a-441f-4874-82e9-3ab3c496289c,2025-04-08T09:10:00,40.75865695161865,-73.98835384809949,2025-04-08 10:46:00,40.758227621742016,-73.98866891376721,user_2165,ROW NYC HOTEL,Manhattan,Tourist Attraction
1750,55afcb4e-725d-413b-80cf-93ab9aa7edcc,2025-04-08T06:22:00,40.76439014606398,-73.98055080631111,2025-04-08 06:59:00,40.76526840359558,-73.98143353834482,user_3909,WELLINGTON HOTEL,Manhattan,Tourist Attraction
1751,e2289ed1-92ea-423f-8d36-b8b27e03e1c5,2025-04-08T07:52:00,40.764341343233184,-73.97260796253607,2025-04-08 09:27:00,40.763731219678114,-73.97172715897827,user_2486,SHERRY NETHERLAND HOTEL,Manhattan,Tourist Attraction
1752,0c45153c-4b00-400f-bada-49d2441f9b04,2025-04-08T08:00:00,40.738322010699406,-74.00926396156808,2025-04-08 09:32:00,40.738633094969956,-74.00903656162069,user_9810,JANE HOTEL,Manhattan,Tourist Attraction
1762,18dfc75d-dccc-4d0f-a607-01ef01a0beec,2025-04-08T08:58:00,40.75335012002986,-73.97013137383037,2025-04-08 10:03:00,40.75279583516736,-73.9703183747557,user_9189,FRANCE MISSION TO UN,Manhattan,Tourist Attraction
1764,37631649-e774-475e-b85c-6ae68af77b22,2025-04-08T07:21:00,40.772644442048254,-73.95990644006977,2025-04-08 08:22:00,40.773545763628725,-73.96067033848318,user_4185,ST JEAN BAPTISTE RC CHURCH,Manhattan,Tourist Attraction
1766,de48ebd3-25e0-40b2-af6f-e62cef033c8f,2025-04-08T10:57:00,40.863944094275624,-73.92821069904882,2025-04-08 12:36:00,40.864740934255416,-73.92793533373502,user_3130,OUR LADY QUEEN OF MARTYRS RECTORY,Manhattan,Tourist Attraction
1767,289e1ead-3f60-4427-a919-482e8078dd33,2025-04-08T07:26:00,40.7564288268421,-73.98542447925625,2025-04-08 09:00:00,40.75707297317564,-73.98511013325484,user_8835,CASABLANCA HOTEL TIMES SQUARE,Manhattan,Tourist Attraction
1768,b194e834-c77b-4c7e-a9d7-a6f150f96266,2025-04-08T06:57:00,40.80835581011406,-73.93836663599002,2025-04-08 07:36:00,40.80862546843257,-73.93919520010323,user_6974,ALL SAINTS RC CHURCH,Manhattan,Tourist Attraction
1773,458b591e-ef17-4baa-8b68-01148c03ca9e,2025-04-08T09:49:00,40.7191341663734,-73.98340526857406,2025-04-08 10:40:00,40.71979147280536,-73.98242308514587,user_2463,PS 140 NATHAN STRAUS,Manhattan,Tourist Attraction
1774,ec664347-f5cd-4239-ba6d-98b1fc3e99f7,2025-04-08T08:27:00,40.717630312658166,-74.01100693662084,2025-04-08 10:19:00,40.71792492771398,-74.01155865937368,user_3800,INDEPENDANCE PLAZA SENIOR CENTER,Manhattan,Tourist Attraction
1776,af21f6cc-a7d8-42d9-a478-23a97fe5e969,2025-04-08T10:12:00,40.72062547632177,-74.01099095347567,2025-04-08 12:02:00,40.71975922239502,-74.01045108961618,user_5320,THE CITI CHILDRENS CENTER AT 388 GREENWICH ST,Manhattan,Tourist Attraction
1777,1f45b32b-130a-4645-9d5f-bb68d7114579,2025-04-08T07:19:00,40.72046827037569,-73.99228642124808,2025-04-08 09:10:00,40.71967969446429,-73.99263088701085,user_5697,BRC SENIOR CENTER,Manhattan,Tourist Attraction
1786,d2f28b71-572d-46e8-95f7-a8e2a4610f48,2025-04-08T09:01:00,40.808756242779225,-73.94128939859559,2025-04-08 10:17:00,40.809454418871184,-73.94174696132455,user_1032,SHILOH CHURCH CHRIST DISCIPLES,Manhattan,Tourist Attraction
1789,5f8db91e-8725-4322-aa5d-ad646b70292f,2025-04-08T09:22:00,40.790618423189244,-73.93794530454302,2025-04-08 10:56:00,40.790887672654314,-73.93777203822688,user_1735,DAWNING VILLAGE DAY CARE CENTER,Manhattan,Tourist Attraction
1792,ba43d137-cf4b-4cc7-9be5-9b1000e7ca40,2025-04-08T07:35:00,40.82185386818554,-73.94108947837466,2025-04-08 09:02:00,40.82118133954017,-73.94123606038406,user_6513,ECDO HEAD START,Manhattan,Tourist Attraction
1800,076ef2df-8396-4ca7-811d-5b64ed669d02,2025-04-08T06:32:00,40.75053844041296,-73.96918246656271,2025-04-08 07:27:00,40.75124838651719,-73.96916329218318,user_9929,ONE UN NEW YORK,Manhattan,Tourist Attraction
1801,44fbc683-3cd9-4c3c-ad35-08d405214f26,2025-04-08T08:26:00,40.741074049854525,-73.98964132696055,2025-04-08 09:35:00,40.74051639265429,-73.99037033757854,user_6429,FLATIRON BUILDING,Manhattan,Tourist Attraction
1805,1e0a433b-e682-4d82-9491-9f817a3b6b5d,2025-04-08T08:50:00,40.79374986158633,-73.93667692956664,2025-04-08 09:29:00,40.79435418705614,-73.93658723523254,user_9234,THOMAS JEFFERSON BATH HOUSE,Manhattan,Tourist Attraction
1808,51c98f2b-8fdb-4a82-8609-e0e6c2be9cc1,2025-04-08T08:28:00,40.80106155487893,-73.92906998457514,2025-04-08 09:00:00,40.80083454186147,-73.92877163183539,user_2648,EAST RIVER ESPLANADE AT E 125 STREET,Manhattan,Tourist Attraction
1809,c1b10da1-b91e-440a-990d-4b3eabc88628,2025-04-08T08:53:00,40.71080246807725,-73.98627342196549,2025-04-08 10:25:00,40.711800810681936,-73.98554206483219,user_2597,TWO BRIDGES URA SITE 7 HOUSE,Manhattan,Tourist Attraction
1811,611773ec-432f-48d3-9972-c9a70d94789b,2025-04-08T07:35:00,40.74767156915117,-74.01005103120748,2025-04-08 08:19:00,40.747630567324194,-74.0108577912564,user_3377,CHELSEA PIERS SKY RINK,Manhattan,Tourist Attraction
1813,10afb883-b28f-4dc8-9a0d-7efe93c99ed8,2025-04-08T06:47:00,40.75047534870243,-73.99337052706002,2025-04-08 08:07:00,40.75019416555904,-73.99324843895177,user_3662,MADISON SQUARE GARDEN,Manhattan,Tourist Attraction
1816,93a1ba9f-f7dd-4b6c-9af7-3a37a0fb835c,2025-04-08T09:35:00,40.79022051655413,-73.96684148569456,2025-04-08 11:06:00,40.7909476409397,-73.9677552921798,user_9849,COLUMBIA GRAMMAR & PREPARATORY SCHOOL,Manhattan,Tourist Attraction
1820,d0d1e4f6-f6f8-4fec-9117-cd6017ec58ea,2025-04-08T08:09:00,40.74328016623013,-74.00399988122216,2025-04-08 09:07:00,40.74374050413937,-74.00444488004824,user_7009,HUDSON GUILD FULTON CENTER SENIOR CENTER,Manhattan,Tourist Attraction
