name,category,latitude,longitude
Sam Sunny,restaurant,40.7415576,-73.9784628
Stonewall Inn,bar,40.7338007,-74.0021484
Pedro's,restaurant,40.7025316,-73.9865653
Trudy's Ice Cream,restaurant,40.8003773,-73.9618056
Bubo,restaurant,40.7460362,-73.9776676
Little Alley,restaurant,40.7473845,-73.9771526
The Musket Room,restaurant,40.7239188,-73.9937813
Nha Trang One,restaurant,40.7167899,-73.9996711
Perk Kafe,cafe,40.7477067,-73.9772631
Lenox Coffee,cafe,40.810011,-73.9431823
Mi,restaurant,40.7461325,-73.9775916
Barcade,bar,40.7120257,-73.951117
Mugs Ale House,restaurant,40.7194991,-73.9557619
Starbucks,cafe,40.7032771,-74.0141339
Cafe Delecctica,cafe,40.7481687,-73.9766084
The Inwood Farm,restaurant,40.8727992,-73.918421
Garden Café,restaurant,40.8681188,-73.9204207
Le Monde,restaurant,40.8057782,-73.9658657
The Richardson,bar,40.7189211,-73.9452678
Carmine's Pizzeria,restaurant,40.714968,-73.9443016
El Loco Burrito,restaurant,40.7148102,-73.9445968
Tony's Pizza,restaurant,40.7150542,-73.9446372
East Met West,restaurant,40.714447,-73.9439212
Il Passatore,restaurant,40.7143441,-73.9420637
Hard Rock Cafe,restaurant,40.756994,-73.9865512
Carbone,restaurant,40.7554192,-73.9930152
Freemans,restaurant,40.7219891,-73.9924423
Aurora,restaurant,40.715682,-73.964684
Best Bagel & Coffee,cafe,40.7522171,-73.9911323
Toasties,cafe,40.757084,-73.977893
Tick Tock Diner,restaurant,40.7524435,-73.9935503
Giovanni,restaurant,40.779131,-73.960536
City Market Cafe,cafe,40.7786106,-73.9606629
9th St Espresso,cafe,40.725087,-73.9777631
Nicky's Unisex,bar,40.7122799,-73.9643956
Vinegar Hill House,restaurant,40.7027578,-73.9812369
Starbucks,cafe,40.7938416,-73.9727702
Junior's,restaurant,40.7582151,-73.9866267
Marlow & Sons,restaurant,40.7106872,-73.9656773
Diner,restaurant,40.7106766,-73.9655977
Niko Coffee,cafe,40.8052757,-73.9624308
Fuji East Restaurant,restaurant,40.7590731,-73.9522681
Piccolo Trattoria,restaurant,40.7592113,-73.9525792
Starbucks,cafe,40.7593049,-73.952923
Standings,bar,40.7282929,-73.9885805
Starbucks,cafe,40.7491,-73.983903
Starbucks,cafe,40.7481846,-73.985687
Ristorante Settepani,restaurant,40.8043628,-73.9476425
Think Coffee,cafe,40.7254132,-73.992406
Starbucks,cafe,40.7272065,-73.9954808
Juliette Restaurant,restaurant,40.716964,-73.959114
miDmuS,restaurant,40.717029,-73.95921
Ako,restaurant,40.7169209,-73.9585388
Doughnut Plant,cafe,40.7174274,-73.9583326
Twin Cafe,cafe,40.7149297,-74.0110479
Kaffe 1668,cafe,40.7151714,-74.0110643
Pick-a-Bagel,cafe,40.7145898,-74.0151484
Le Pain Quotidien,cafe,40.7149567,-74.0094239
Starbucks,cafe,40.715522,-74.008983
Rockmeisha Izakaya,restaurant,40.7326428,-74.002464
Annisa,restaurant,40.7326055,-74.0025709
John's of Bleecker St,restaurant,40.7316098,-74.0033416
Joe's Pizza,restaurant,40.7305467,-74.0020629
Momo Sushi,restaurant,40.7051487,-73.9333751
Hummus Place,restaurant,40.7322601,-74.0033462
Lombardi's Pizza,restaurant,40.7215933,-73.9956147
Le Pain Quotidien,cafe,40.780542,-73.954568
Cafe Social 68,cafe,40.7246121,-73.9843772
Citrico Cafe & Agaveria Bar,cafe,40.7579727,-73.9232898
Brick Lane,restaurant,40.7266326,-73.9893341
Tom's Restaurant,restaurant,40.8054509,-73.9654163
Counting Room,bar,40.7209114,-73.9569205
Urban Rustic,restaurant,40.719235,-73.9528162
The River Café,restaurant,40.7037562,-73.994822
Bill's Townhouse,restaurant,40.7601706,-73.9730036
Dancing Crane Cafe,cafe,40.7671831,-73.9720578
Four Seasons,restaurant,40.7580948,-73.9720223
Starbucks,cafe,40.7504996,-73.9791604
Starbucks,cafe,40.7518527,-73.9775605
Marchi's,restaurant,40.7431603,-73.9775799
Pando Park,restaurant,40.7449757,-73.9831065
Smith & Wollensky,restaurant,40.7552548,-73.9709515
El Rio Grande,restaurant,40.747976,-73.9770014
Stromboli Pizza,restaurant,40.7277727,-73.985401
Le Pain Quotidien,cafe,40.767389,-73.9814374
The Breslin,restaurant,40.7456818,-73.9881244
Blue Ribbon,restaurant,40.7675881,-73.9831167
Sushi Damo,restaurant,40.7677295,-73.9834926
Starbucks,cafe,40.7675105,-73.9829426
Starbucks,cafe,40.7676336,-73.9812871
Starbucks,cafe,40.7649496,-73.979109
USA Brooklyn Delicatessen,restaurant,40.7653848,-73.980359
Carnegie Diner & Cafe,restaurant,40.7657283,-73.9801012
Brooklyn Diner,restaurant,40.7656073,-73.9808744
Hooters,restaurant,40.7654347,-73.9813709
Petrossian,restaurant,40.7660154,-73.9794173
Farinella,restaurant,40.7671365,-73.9814703
Hoy Wong Restaurant,restaurant,40.7166141,-73.998003
Murry Hill Diner,restaurant,40.7459042,-73.9803026
Starbucks,cafe,40.7566623,-73.9858678
Europa Cafe,cafe,40.7566921,-73.9867194
Red Lobster,restaurant,40.7556031,-73.987571
Madison & Vine,restaurant,40.75218,-73.9795023
Pera,restaurant,40.7523353,-73.9793753
LA Fonda Del Sol,restaurant,40.7532708,-73.9773865
ammos estiatorio,restaurant,40.7542362,-73.977239
The Beer Bar Cafe Centro,cafe,40.7539377,-73.9768745
Vander Bar,bar,40.7545379,-73.9770283
Starbucks,cafe,40.7543596,-73.9763714
Naples 45,cafe,40.7538356,-73.9761648
Starbucks,cafe,40.7529578,-73.9752216
Maman,cafe,40.7523179,-73.9738176
Starbucks,cafe,40.7520527,-73.9759313
Zucker's Bagels & Smoked Fish,cafe,40.750611,-73.9768239
Central Cafe,cafe,40.7519302,-73.978195
Starbucks,cafe,40.7519234,-73.9797222
The Heavenly Burger,restaurant,40.7517125,-73.9799108
Andaz,cafe,40.7528897,-73.9811056
Connolly's,restaurant,40.7561557,-73.9776613
Wafels and Dinges,cafe,40.7545385,-73.9840441
Starbucks,cafe,40.7490233,-73.9822288
Broadway Cafe,cafe,40.7433913,-73.9892649
Starbucks,cafe,40.7538901,-73.9787699
Starbucks,cafe,40.7570782,-73.9759556
Starbucks,cafe,40.7613683,-73.9737843
American Retro Bar & Grill,restaurant,40.7650421,-73.9880624
L'Ecole Restaurant,restaurant,40.7208901,-74.0003925
Buddakan,restaurant,40.7421638,-74.0048429
Tony's,restaurant,40.7563915,-73.9854253
Capital Grille at Time-Life,restaurant,40.7607113,-73.9807687
Le Parker Meridien Burger,restaurant,40.7640653,-73.9782577
Balade,restaurant,40.7302946,-73.9831042
Russian Tea Room,restaurant,40.7650339,-73.9793005
Market Diner,restaurant,40.7615758,-73.9973446
El Parador Café,cafe,40.7444662,-73.9747193
Starbucks,cafe,40.7436871,-73.9769314
Starbucks,cafe,40.80593,-73.9545289
Unknown,restaurant,40.8072019,-73.9535984
Chocolat Restaurant Lounge,restaurant,40.8069537,-73.9537487
The Fox,restaurant,40.8068012,-73.9534135
Melba's,restaurant,40.8030944,-73.95657
Cedric,restaurant,40.8061352,-73.9530327
Billie's Black Bar & Lounge,restaurant,40.8062286,-73.9532312
Café Triskell,restaurant,40.7556257,-73.9280317
Little Ruby’s Cafe,restaurant,40.7340693,-74.0027914
Forty Four,bar,40.7555936,-73.982172
Gregory Coffee,cafe,40.7557338,-73.9824831
Uncle Jack's,restaurant,40.7537214,-73.995808
Sergimmo Slumeria,restaurant,40.7542567,-73.9954338
Zoob Zib Thai Authentic Noodle Bar,restaurant,40.7543769,-73.9953394
Skylight Diner,restaurant,40.7533878,-73.9967808
Hudson Station Bar and Grill,restaurant,40.753864,-73.9956804
Golden City,restaurant,40.7532964,-73.9966423
Sushi Star,cafe,40.7544373,-73.9953011
Starstruck Coffee,cafe,40.754189,-73.9954886
Twins,bar,40.7531379,-73.9967415
Albatross Bar,bar,40.7701858,-73.9121836
Shmoné,restaurant,40.7335075,-73.9990673
Sweet Love Snack Bar,cafe,40.7202016,-74.0139829
Grimaldi's Pizzeria,restaurant,40.7025856,-73.993235
Naughty Crab,restaurant,40.7897154,-73.947931
Chu Ros Thai,restaurant,40.7892539,-73.9486313
Burritos y Mas,restaurant,40.7887557,-73.9486546
Quechua Nostra,restaurant,40.7905956,-73.9476505
El Aguila,restaurant,40.7905186,-73.9477162
The Lexington Social,restaurant,40.7906645,-73.9476244
Caribbean Fiesta,restaurant,40.7927227,-73.9503373
Bawarchi Indian Cuisine,restaurant,40.7927565,-73.9503189
King Dragon,restaurant,40.7928147,-73.95028
The Lambs Club,restaurant,40.756616,-73.9845926
Think Coffee,cafe,40.733002,-73.9897704
Ave Coffee House,cafe,40.7420998,-73.9196581
The Playwright,restaurant,40.7604723,-73.9840506
Skinny's Cantina,restaurant,40.7456176,-73.9567972
Tutt Café,cafe,40.7002323,-73.9933602
Starbucks,cafe,40.7562302,-73.9750931
Hunan Park,restaurant,40.7921936,-73.9676915
Starbucks,cafe,40.7952322,-73.9655391
Broad Nosh Bagel,cafe,40.7879675,-73.9764443
City Diner,restaurant,40.7910471,-73.9747641
The Crossbar,cafe,40.7883801,-73.977098
Five Napkin Burger,restaurant,40.7870645,-73.9779334
Ayza Wine & Chocolate Bar,restaurant,40.7297052,-74.0048523
Starbucks,cafe,40.739372,-74.002526
Trattoria Spaghetto,restaurant,40.730184,-74.0025384
Kesari,restaurant,40.7993268,-73.9687523
Manhattan Valley,restaurant,40.7970144,-73.969726
Street Taco To Go,restaurant,40.7982198,-73.9687221
Metro Diner,restaurant,40.7974417,-73.9701456
Just Pho You,restaurant,40.7975736,-73.9693077
Texas Rotisserie Grill,restaurant,40.7955308,-73.9714792
Wa Lung Kitchen,restaurant,40.7138887,-73.980158
El Castillo De Jagua,restaurant,40.714385,-73.9818347
Zafis Luncheonette,restaurant,40.7149321,-73.9826973
Malecon Restaurant,restaurant,40.7950365,-73.9699063
Ozen,restaurant,40.7949162,-73.9699934
Think Coffee,cafe,40.739495,-74.0029857
Vin et Fleur,restaurant,40.7242486,-74.0033107
Uro Cafe,cafe,40.7224661,-73.9488216
Pizza Palace,restaurant,40.8624129,-73.925052
Starbucks,cafe,40.7337954,-74.0064644
5 Napkin Burger,restaurant,40.7601614,-73.9911074
Gallo Nero,restaurant,40.7598902,-73.9917945
Ollie's,restaurant,40.7588415,-73.993163
Maison Close,restaurant,40.7232955,-74.0037222
Laut,restaurant,40.7375482,-73.991104
Vanessa's Dumpling House,restaurant,40.7182938,-73.9917781
Posh Pass NYC,bar,40.7446199,-74.0030314
Starbucks,cafe,40.7580159,-73.9889989
Pasquale Jones,restaurant,40.7210814,-73.9967486
Starbucks,cafe,40.7644259,-73.9810737
Cariño,restaurant,40.712472,-73.9647679
Miss Favela,restaurant,40.7121797,-73.9662152
South Port,restaurant,40.7124975,-73.9642787
Bosino,restaurant,40.7987385,-73.9673316
Katz's Delicatessen,restaurant,40.7223431,-73.987353
Mercato,restaurant,40.7562465,-73.9936447
Starbucks,cafe,40.719348,-73.9899978
La Colombe Coffee Roasters,cafe,40.7235092,-73.9913293
Cactus Mexican Restaurant,restaurant,40.7006444,-73.9438427
Blue Smoke,restaurant,40.7146177,-74.015376
Banc,restaurant,40.7432296,-73.9797061
Starbucks,cafe,40.8612406,-73.970363
Parisienne Bakery Cafe,cafe,40.8519524,-73.9722828
Starbucks,cafe,40.8130952,-73.9843469
Starbucks,cafe,40.8561334,-73.9654125
Astor Row Cafe,cafe,40.8109307,-73.9428375
Mole,restaurant,40.7188464,-73.9635537
Black Brick,cafe,40.7141835,-73.9616239
Dokébi,restaurant,40.7142048,-73.9602838
Kabob Shack,restaurant,40.7107181,-73.9582427
Nice Matin,restaurant,40.783395,-73.9784022
Starbucks,cafe,40.7849274,-73.9788012
The West,cafe,40.7117855,-73.9514399
Limosneros,restaurant,40.7113992,-73.9510101
Polash,restaurant,40.799638,-73.9385346
Ashbox Cafe,restaurant,40.7377801,-73.955195
BlueSpoon Coffee Co,cafe,40.7082349,-74.0076153
Lighthouse,restaurant,40.7108493,-73.9537084
Briciola Pizza Bar,restaurant,40.7290902,-74.0034181
The Pencil Factory,bar,40.729763,-73.9574255
Mama Carmela's Pizza,restaurant,40.760139,-73.9073114
King's Wok,restaurant,40.7601756,-73.907416
Dillinger's Bar and Grill,bar,40.7614413,-73.9094062
China Pagoda,restaurant,40.7608858,-73.9089094
Vinnies Pizzeria,restaurant,40.7188705,-73.9567925
Möge Tee,cafe,40.7364693,-73.9790705
Whole Green,cafe,40.7375845,-74.0001443
Alice,restaurant,40.7370855,-73.9986335
Bean And Bean,cafe,40.7072305,-74.0123877
Starbucks,cafe,40.7043817,-74.0130472
Mezze on the River,restaurant,40.7113206,-74.0178328
Starbucks,cafe,40.8735418,-73.9084923
CoCo Fresh Tea & Juice,cafe,40.7401504,-73.984507
Starbucks,cafe,40.7405189,-73.984262
Starbucks,cafe,40.7101916,-74.0079702
Rincón Melania,restaurant,40.74475,-73.929014
Tangra Asian Fusion,restaurant,40.744228,-73.924884
Starbucks,cafe,40.722517,-73.997904
Philomena's Pizza,restaurant,40.7433564,-73.9229731
Hei Tiki,restaurant,40.760433,-73.922418
Brooklyn Bagel,cafe,40.760478,-73.9218592
Taco Tumba,restaurant,40.763681,-73.915422
P.J. Clarke's,restaurant,40.7137763,-74.0161159
Mamajuana Cafe,restaurant,40.8664492,-73.9280511
Justino’s Pizzeria,restaurant,40.7681264,-73.9857786
Bonchon Chicken,restaurant,40.7474905,-73.9851225
LOVE Korean BBQ,restaurant,40.7471688,-73.9852137
Bar Boulud,bar,40.7719194,-73.9818733
Pappardella,restaurant,40.7793384,-73.9776644
The Smith,restaurant,40.7716005,-73.9818679
Cafe Amrita,cafe,40.8010232,-73.9587555
Trattoria iL Gusto,restaurant,40.7892574,-73.9698327
Saba's Pizza,restaurant,40.783305,-73.9779565
Bite,cafe,40.725584,-73.9947398
West Side Wok & Konata Sushi,restaurant,40.7923619,-73.9713503
Kouzan,restaurant,40.7921778,-73.9714835
Spice,restaurant,40.7842712,-73.9772503
WAU,restaurant,40.7844415,-73.9776143
Outback Steakhouse,restaurant,40.742262,-73.991796
Ear Inn,bar,40.7259033,-74.0094874
Rudraks,restaurant,40.7930225,-73.9713526
Pio Pio,restaurant,40.7929325,-73.97142
Jing Fong Restaurant,restaurant,40.7827246,-73.9789347
Haru Sushi,restaurant,40.7841916,-73.9773072
Bohemian Spirit Restaurant,restaurant,40.769058,-73.9565904
Del Frisco's Double Eagle Steakhouse,restaurant,40.7593243,-73.9816604
Barfly,bar,40.7371351,-73.9846154
River Palm Terrace,restaurant,40.8426844,-73.9687863
Pause Cafe,cafe,40.7212256,-73.984094
Parkside Lounge,restaurant,40.7210809,-73.9832025
Starbucks,cafe,40.757236,-73.9891169
Bobby Van's,restaurant,40.7061255,-74.0110467
Bombay Cuisine,restaurant,40.7034829,-74.011087
Joe & The Juice,cafe,40.7059471,-74.0116452
787 Coffee,cafe,40.7035248,-74.0108884
Giardino D'Oro,restaurant,40.7074557,-74.0072562
Springbone Kitchen,cafe,40.7037137,-74.0104781
Starbucks,cafe,40.7051728,-74.011298
Chinah,restaurant,40.7069584,-74.0072664
Blue Ribbon Sushi Bar & Grill,restaurant,40.7079524,-74.0078296
Raj's Indian Kitchen,restaurant,40.7089962,-74.0090796
Cipriani,restaurant,40.7061385,-74.0093922
Nikoniko Sushi Bowl,restaurant,40.7055979,-74.0077325
Taste of Tokyo,restaurant,40.7051087,-74.0096903
Centric,restaurant,40.7052024,-74.0080678
Taz Cafe,cafe,40.7068069,-74.0085989
Sweetleaf,cafe,40.7471411,-73.9560426
Wall Street Grill,restaurant,40.704892,-74.0085955
Delmonico's,restaurant,40.705042,-74.0102055
Hale & Hearty Soup,restaurant,40.7051928,-74.0109499
Harry's,restaurant,40.7046606,-74.0097725
Joseph's Ristorante,restaurant,40.7048541,-74.0095999
Lenwich,restaurant,40.7047709,-74.0088362
Starbucks,cafe,40.7046071,-74.0091159
The Original Soupman,restaurant,40.7046731,-74.0089587
Snacky,restaurant,40.7143802,-73.9606917
LA Burrito,restaurant,40.7140469,-73.9614532
Noods n' Chill,restaurant,40.7119172,-73.9611898
Simple Cafe,restaurant,40.7124197,-73.9627821
BK Lobster,restaurant,40.7127964,-73.9625166
ROKA Modern Mediterranean,restaurant,40.711957,-73.9627446
Amor y Amargo,bar,40.7105361,-73.9583554
Moka & Co,cafe,40.7924179,-73.9738051
Village Square Pizza,restaurant,40.7923725,-73.9738366
Randolph Bar and Restaurant,restaurant,40.7119483,-73.9634982
Jean-Georges,restaurant,40.7689698,-73.9816665
Gallo Nero,restaurant,40.7598127,-73.9921572
Tavern on Jane,restaurant,40.7382471,-74.0042816
maman,restaurant,40.7328961,-73.9934793
82 Stanton,bar,40.7216511,-73.988822
Troy,bar,40.7402557,-74.0055355
bOb Bar,bar,40.7224339,-73.9899014
Apothéke,bar,40.7143873,-73.9981634
The Quays,bar,40.7618244,-73.9109732
Blackbird's,bar,40.7634117,-73.9134101
1020 Bar,bar,40.8032115,-73.963939
The Drink,bar,40.7110056,-73.9453695
Eagle Trading Company,cafe,40.734967,-73.9582704
Sereneco,restaurant,40.7300079,-73.9577527
Paulie Gee's,restaurant,40.7296588,-73.9584608
Baggio's Pizza and Restaurant,restaurant,40.8511728,-73.9708161
Wok Bar,restaurant,40.8509466,-73.9699964
Koa Koa,cafe,40.8490918,-73.9709284
Nova Pizza and Pasta,restaurant,40.8493432,-73.9708318
Starbucks,cafe,40.8494284,-73.9707835
Silver Pond,restaurant,40.8515321,-73.9717896
Marseille,restaurant,40.7597501,-73.991404
Westway Diner,restaurant,40.7594365,-73.9916409
Mama Mia 44SW,restaurant,40.75972,-73.9919266
Olive Valley,restaurant,40.7051843,-73.9333832
Swallow Cafe,cafe,40.7054406,-73.9334626
Shinobi Ramen,restaurant,40.7056811,-73.9322419
Destefano's Pub,bar,40.8162456,-73.9906916
Bar Americano,bar,40.7314241,-73.9576915
Shanghai Lee,restaurant,40.7318079,-73.9580677
Black Rabbit,bar,40.7300934,-73.9564221
Calexico,restaurant,40.724188,-73.9511746
The Turkey's Nest,bar,40.7205705,-73.9549076
The Lobster Joint,restaurant,40.7354045,-73.9552629
Gramercy Cafe,restaurant,40.759015,-73.9187469
The Rabbit Hole,bar,40.7591405,-73.9196792
Little Armenia,cafe,40.7341833,-73.9550701
Elder Greene,restaurant,40.7307172,-73.957596
Vamos al Tequila,restaurant,40.7307935,-73.9576081
Cozinha Latina,restaurant,40.7298686,-73.9590216
Fumo,restaurant,40.8028091,-73.9680501
Starbucks,cafe,40.7308318,-73.983183
Bait and Hook,restaurant,40.7325829,-73.985049
IHOP,restaurant,40.732808,-73.9855592
Thai Terminal,restaurant,40.7302647,-73.9838635
Mokyo,restaurant,40.7271582,-73.9839133
Le Pain Quotidien,cafe,40.7602221,-73.9750354
Burger Heaven,restaurant,40.7601912,-73.9749707
Hungry Burrito,restaurant,40.7216427,-73.9382913
One Stop Beer Shop,bar,40.7210499,-73.9407121
Tar Pit,cafe,40.7175527,-73.9411987
Gennaro,restaurant,40.7916482,-73.9718511
Mido,restaurant,40.7900622,-73.9735109
French Roast,restaurant,40.7876494,-73.9767024
Poulet Sans Tête,restaurant,40.7894731,-73.9739492
Crema,restaurant,40.7396323,-73.996068
da Umberto,restaurant,40.7395688,-73.9959132
Chote Nawab,restaurant,40.7424809,-73.982394
Haandi,restaurant,40.7424095,-73.9824519
Diner 24,restaurant,40.7381852,-73.9833938
Fred's,restaurant,40.7856847,-73.9767189
Chalait,cafe,40.7851171,-73.9766494
GiGi Cafe,cafe,40.7468389,-73.9933857
Barn Joo Nomad,restaurant,40.7460666,-73.9902685
Izumi,restaurant,40.7468975,-73.9922271
Joe Coffee Company,cafe,40.8101961,-73.9618962
Marlow Bistro,restaurant,40.802903,-73.9641533
Starbucks,cafe,40.771384,-73.9824717
Carmine's,restaurant,40.7911041,-73.9740198
Smoke Jazz & Supper Club,restaurant,40.8011187,-73.9682057
Hell's Kitchen,restaurant,40.7566987,-73.9941361
The Hummus & Pita Co.,restaurant,40.7391381,-73.9957765
J's Pizza,restaurant,40.7398784,-73.9989355
Ponte's,restaurant,40.723424,-74.0104811
M-Thai,restaurant,40.744378,-73.9988791
Birch Coffee,cafe,40.7932055,-73.9675462
Uris Deli,cafe,40.808949,-73.9609388
Blue Java,cafe,40.8094957,-73.9602878
Good Enough To Eat,restaurant,40.7859964,-73.9727711
Broome Street Bar,bar,40.7231111,-74.0029527
Kashmir 9,restaurant,40.7549873,-73.9948837
Bombay Tandoori,restaurant,40.7546155,-73.9949991
Starbucks,cafe,40.7761432,-73.9502069
Starbucks,cafe,40.7859465,-73.9507027
Joe Coffee Company,cafe,40.7333179,-74.0005572
North Square,restaurant,40.7323868,-73.9986529
Starbucks,cafe,40.7332121,-74.0026862
Waverly Diner,restaurant,40.7331105,-74.0001672
Chelsea Square Restaurant,restaurant,40.7462866,-74.0012226
Moran's,restaurant,40.7452438,-74.0056781
Brooklyn Bagel & Coffee Company,cafe,40.7461544,-73.9975859
Donnatella,restaurant,40.742976,-73.9998997
St Kilda Coffee,cafe,40.7439702,-73.9997102
Jungle Bird,bar,40.742595,-74.000177
Shaffer’s,restaurant,40.7420517,-74.001097
Grand Sichuan Eastern,restaurant,40.7425367,-74.0002195
LOULOU,restaurant,40.7426738,-74.0001725
Lasagna Ristorante,restaurant,40.7432349,-73.9997149
Da Andrea,restaurant,40.7420719,-74.0006086
Rocking Horse Cafe,restaurant,40.7429148,-73.9999442
Dim Sum Chelsea,restaurant,40.7446356,-73.9986916
Starbucks,cafe,40.7411054,-74.0012613
Starbucks,cafe,40.7451876,-73.9988416
$1 Pizza,restaurant,40.7462136,-73.9975429
Temerarion,restaurant,40.7434448,-73.9995835
Uncle Nick's Restaurant,restaurant,40.749067,-73.995471
Bagel and More,cafe,40.7384873,-74.0000074
iPizzaNY,restaurant,40.7388057,-73.9997449
The Donut Pub,cafe,40.7388452,-73.9998143
The Ellington,restaurant,40.8008613,-73.9682637
Tap a Keg,bar,40.800303,-73.9683394
Serafina,restaurant,40.800492,-73.9682823
Zona Rosa,restaurant,40.7139182,-73.9495566
LIC Bar,bar,40.7470196,-73.9528397
16 Handles,restaurant,40.7183326,-73.9582765
Brooklyn Bowl,bar,40.7219806,-73.957629
Pad Thai,restaurant,40.749979,-73.9953383
Pio Pio Riko,restaurant,40.750033,-73.995284
Tempest Bar,bar,40.7499096,-73.99538
Taco Bandito,restaurant,40.747489,-73.9971782
The Pho 2,restaurant,40.7457288,-73.998418
Dallas BBQ,restaurant,40.7456072,-73.9987643
Nina's Great Burrito Bar,restaurant,40.7860514,-73.9727433
Viand,restaurant,40.7856099,-73.9725709
Joe Coffee Company,cafe,40.7857253,-73.9729983
The Consulate,restaurant,40.7858452,-73.9723966
Chelsea Cottage's Viet Grill,restaurant,40.7460875,-74.0013739
Famous Original Ray's Pizza,restaurant,40.7460286,-74.0014102
The Meatball Company,restaurant,40.7458946,-74.0014911
Qanoon,restaurant,40.7452195,-74.0020025
Dil e Punjab Deli,restaurant,40.7446425,-74.0024036
Omai,restaurant,40.7442217,-74.0027401
Tipsy Parson,restaurant,40.7441697,-74.0027774
Salinas,restaurant,40.7436469,-74.0031642
Olde City,restaurant,40.7435996,-73.98616
Tarallucci e Vino,restaurant,40.7843578,-73.973482
The Cottage,restaurant,40.7820354,-73.9794104
Oslo Coffee Roasters,cafe,40.7131024,-73.9623534
Starbucks,cafe,40.761405,-73.9678672
Starbucks,cafe,40.7694073,-73.9848933
Columbus Cafe,cafe,40.7871147,-73.9719656
Partners Coffee,cafe,40.7179682,-73.9591782
Starbucks,cafe,40.7777547,-73.9826132
La Vera Pizza,restaurant,40.7943168,-73.9724172
Vazacs Horseshoe Bar,bar,40.7250128,-73.9813915
G Lounge,bar,40.7422344,-73.9986032
Union Pool,bar,40.7150021,-73.9516171
Skinny Dennis,bar,40.7158872,-73.9621335
The Levee,bar,40.7163751,-73.9615756
Cantina Cubana,restaurant,40.7220509,-73.9832277
Raoul's,restaurant,40.7262443,-74.002053
BLT Fish,restaurant,40.738528,-73.993377
Aldea,restaurant,40.7387251,-73.9937954
Chelsea Inn,restaurant,40.7388033,-73.9940261
Hollywood Diner,restaurant,40.7387142,-73.9956231
Flavabom,restaurant,40.7394173,-73.9951134
Guac Time,restaurant,40.7395596,-73.9954916
Hakata TonTon,restaurant,40.7499004,-73.985695
Dinosaur Bar-B-Que,restaurant,40.8181449,-73.9608188
American Cut,restaurant,40.7191271,-74.0101564
Peter Luger Steak House,restaurant,40.7098661,-73.9625564
Sunnyside Pizza,restaurant,40.7440783,-73.9240225
Yonah Shimmel Knish Bakery,cafe,40.7231858,-73.9901312
Golden Unicorn,restaurant,40.7136218,-73.9970903
Pies-N-Thighs,restaurant,40.7112166,-73.9613452
Drop-Off Service,bar,40.7299571,-73.9808751
Mona's,bar,40.7291724,-73.9783661
Katsu Hama,restaurant,40.7564397,-73.9775373
Sushi-tei,restaurant,40.7563919,-73.9775762
Go! Go! Curry!,restaurant,40.7544471,-73.9906058
Sunflower,cafe,40.7268178,-73.9887455
San Marzano,restaurant,40.7279733,-73.9883791
"Paul's ""Da Burger Joint""",restaurant,40.7285199,-73.9879471
Mr. Keke,restaurant,40.7290829,-73.990007
Vidali’s Pizza,restaurant,40.7671244,-73.9302379
Recette,restaurant,40.7132253,-73.9563783
Emmy squared,restaurant,40.7122344,-73.9556656
Mizu,restaurant,40.7133221,-73.9619067
Xing Fu Tang,cafe,40.728772,-73.9877814
212 Hisae's,bar,40.7297134,-73.98873
The Bean,cafe,40.7297726,-73.98948
Compton’s,restaurant,40.7707975,-73.9301358
Copacabana,restaurant,40.7563693,-73.928987
Clockwork Bar,bar,40.7153863,-73.990065
Dim Sum Go Go,restaurant,40.7132723,-73.9977424
Harlem Maison,restaurant,40.8121987,-73.9516713
Chat n Chew,restaurant,40.7369154,-73.9920567
Txikito,restaurant,40.7473898,-74.0004115
Merchant's,restaurant,40.7403988,-73.9986292
Riverpark,restaurant,40.7395197,-73.9734647
Port Sa'id,restaurant,40.7279023,-74.0070286
Mia Pizza,restaurant,40.7789921,-73.9145079
Zorbas,restaurant,40.7749895,-73.9134767
Gold N Honey,cafe,40.7787541,-73.9141762
Waltz Astoria,cafe,40.779282,-73.9155723
Agnanti,restaurant,40.7810383,-73.9179527
Tap,restaurant,40.7752741,-73.9092283
Brooklyn Bagel & Coffee Co.,cafe,40.7747031,-73.9084483
New York City Bagel and Coffee House,cafe,40.7747988,-73.913727
The Sparrow Tavern,restaurant,40.772794,-73.9164181
L&B Spumoni Gardens,restaurant,40.702251,-73.9932479
Sala Thai,restaurant,40.780121,-73.9803132
Gari Columbus,restaurant,40.7811731,-73.976285
Arco Cafe,restaurant,40.7987331,-73.9672189
The Tang,restaurant,40.799962,-73.966315
New Kam Lai,restaurant,40.7988031,-73.9671681
Noche Mexicana,restaurant,40.7974215,-73.9681317
Tacqueria 86,restaurant,40.7929735,-73.9721553
Calaveras Corner,restaurant,40.8006621,-73.9657815
Plum,restaurant,40.7930112,-73.9722352
Bar Thalia,bar,40.7940856,-73.9728347
Kona Coffee and Company,cafe,40.7258624,-73.9898947
Dim Sum Palace,restaurant,40.7259382,-73.989838
Kissaki,restaurant,40.7253406,-73.9918998
Cozy Soup 'n' Burger,restaurant,40.7300458,-73.9930576
Grabenstein's Bagels,cafe,40.726927,-73.9957148
The GRID,restaurant,40.7279432,-73.9942997
The Bean,cafe,40.7256046,-73.98962
The Black Ant,restaurant,40.7257664,-73.9895015
Bronx Brewery,bar,40.7258666,-73.9894282
Ballato,restaurant,40.7245967,-73.9945106
Le Souk New York - Restaurant & Hookah Lounge,restaurant,40.727911,-73.9992736
Felix Roasting Co.,cafe,40.7261039,-73.9987153
Dos Caminos,restaurant,40.7266689,-73.9999718
Starbucks,cafe,40.7268477,-74.0001615
Linen Hall,restaurant,40.7323434,-73.9876343
Hags,restaurant,40.7289736,-73.984523
Love Mama,restaurant,40.7304045,-73.9861256
Not as Bitter,cafe,40.729007,-73.9847265
Bar Veloce,bar,40.730686,-73.9864013
Prince Tea House,cafe,40.7294911,-73.9863927
Hidden Grounds,cafe,40.7304731,-73.9894757
Hou Hot Pot,restaurant,40.731052,-73.9902313
Tim Ho Wan,restaurant,40.7313326,-73.9901504
Lazy Sundaes,cafe,40.7301234,-73.9941159
One Fifth,restaurant,40.7320291,-73.9960911
Matto Espresso,cafe,40.7302457,-73.9939666
Starbucks,cafe,40.7342526,-73.9923138
Leon's,restaurant,40.733256,-73.9914891
Max Brenner,cafe,40.7343881,-73.9910564
Joe Coffee Company,cafe,40.7350879,-73.9933063
Hunan Bistro,restaurant,40.7323365,-73.9881158
Glaze Teriyaki,restaurant,40.7343063,-73.9926464
Villanelle,restaurant,40.7342725,-73.99338
Pranakhon,restaurant,40.7336934,-73.9931603
Phoenix Bar,bar,40.7299744,-73.9811697
Manuela,restaurant,40.725385,-74.000397
La Pecora Bianca,restaurant,40.723501,-73.9963078
La Esquina,restaurant,40.7213614,-73.997634
Citizens,cafe,40.7213537,-73.9977481
La Colombe Coffee Roasters,cafe,40.7239788,-73.9964591
Champers Social Club,restaurant,40.7214887,-73.9988518
Upside Pizza,restaurant,40.7221019,-73.9964217
Jack’s Wife Freda,restaurant,40.7222872,-73.9973743
Ed's Lobster Bar,restaurant,40.7198788,-73.9990016
Nom Wah Nolita,restaurant,40.7203696,-73.9945824
Rintintin,restaurant,40.7212696,-73.9948289
Thai Diner,restaurant,40.7207443,-73.9957016
Piacere,restaurant,40.7196837,-73.9951032
Ki Mi Ka,restaurant,40.7205649,-73.9951708
The Ship,bar,40.719827,-73.9994807
Ray's,bar,40.7212174,-73.9924737
Sunny & Annie’s Deli,restaurant,40.7246357,-73.9816786
Niagara,bar,40.725928,-73.9834617
Tabetomo,restaurant,40.7268801,-73.9831148
Doc Hollidays,bar,40.7272283,-73.982885
Ruby's Cafe,restaurant,40.7436191,-73.9798913
Hummus Kitchen,restaurant,40.7436918,-73.979838
Cha Cha Matcha,cafe,40.7445908,-73.988682
Mamazul Mexican Grill,restaurant,40.7444738,-73.9890362
The Flatiron Room,bar,40.7445195,-73.9904827
Oscar Wilde,bar,40.7451365,-73.9900429
Hee Korean BBQ Grill,restaurant,40.7453942,-73.9912033
Kollectiv,cafe,40.724302,-73.9912261
Bar Moga,restaurant,40.7277615,-74.0011504
Bar Veloce,bar,40.7281515,-74.0018859
Mermaid Oyster Bar,restaurant,40.7291484,-74.00137
Artichoke Pizza,restaurant,40.7299487,-74.0006561
Senza Gluten,restaurant,40.7290193,-74.0003692
Third Rail Coffee,cafe,40.7299427,-73.999592
Red Bamboo,restaurant,40.7312727,-74.0003054
Whynot,cafe,40.7338779,-74.0004371
Tue Thai Food,restaurant,40.7338979,-73.9998082
Amelie Wine Bar,restaurant,40.7326969,-73.9976557
Amber,restaurant,40.7761285,-73.9794669
72nd Eatery,cafe,40.7775475,-73.9784645
Il Violino,restaurant,40.7750226,-73.9807865
Bosco,bar,40.7288472,-74.0002307
Super Burrito,restaurant,40.7289369,-74.0001861
Marumi,restaurant,40.7289859,-73.9983587
Springbone Kitchen,restaurant,40.7298843,-73.9992546
The Bitter End,bar,40.7283337,-73.9992168
Sonnyboy,restaurant,40.7205179,-73.9900978
Da Gennaro,restaurant,40.7182848,-73.9979936
Jing Fong,restaurant,40.7188891,-73.9990644
Umberto’s Clam House,restaurant,40.7184479,-73.9976239
La Nonna,restaurant,40.7185144,-73.9975852
Paesano's,restaurant,40.7185789,-73.997542
Haven Cafe,cafe,40.718849,-73.9966792
Chiu Hong Bakery & Restaurant,cafe,40.7195996,-73.9963707
Caffe Napoli,restaurant,40.7182017,-73.9977587
Shoo Shoo Nolita,restaurant,40.7201124,-73.9961673
Jisu Vegetarian,restaurant,40.7160659,-73.9953076
Lena,restaurant,40.7191105,-73.9915999
Teado Tea Shop,cafe,40.7172462,-73.9950457
Ming Kee Kitchen,restaurant,40.7182655,-73.994642
Yaya Tea Garden,cafe,40.7162569,-73.9950007
Paint 'N Pour,bar,40.7193178,-73.9915172
Russ & Daughters Cafe,cafe,40.7196388,-73.9895629
Two Doors Down,bar,40.7228647,-73.9890918
Baby Grand LES,bar,40.7221,-73.9883133
8282,bar,40.721622,-73.9887536
V-Nam Cafe,restaurant,40.7235492,-73.9880373
One and One,bar,40.7232525,-73.9881492
Mama'a Bar,bar,40.7226239,-73.9831624
TsuruTonTan,restaurant,40.7367779,-73.9910723
Cha Cha Matcha,cafe,40.7399221,-73.9893996
Joe Coffee,cafe,40.7364478,-73.9909744
Penelope,cafe,40.7437268,-73.9814828
Udon West,restaurant,40.753593,-73.97354
Oceans,restaurant,40.7375364,-73.9880227
Blue Bottle Coffee,cafe,40.7385396,-73.987301
Hutch + Waldo,cafe,40.7368994,-73.986826
Corner Social,restaurant,40.8086893,-73.9451659
Caribbean Starr,restaurant,40.8070737,-73.9456305
Starbucks,cafe,40.8078217,-73.9450772
Julius,bar,40.7345357,-74.00163
Lucia Pizza,restaurant,40.7213965,-74.0043967
Taureau,restaurant,40.7244662,-74.0056631
Daily Provisions,cafe,40.7292441,-74.0037022
Ueki,restaurant,40.7292006,-74.0038916
Ama on Downing,restaurant,40.7293143,-74.0039637
Charley Bird,restaurant,40.7277301,-74.0028571
Wolfnights - the gourmet wrap,restaurant,40.7306001,-74.0025218
Tacombi,restaurant,40.7310966,-74.0027945
Carmine Street Beers,bar,40.7298428,-74.0036369
Bedford Studio,cafe,40.7311268,-74.0046067
Jonty Jacobs,restaurant,40.7331485,-74.0053648
Via Carota,restaurant,40.7330983,-74.003691
Barrow's Pub,bar,40.7315711,-74.0068211
Da Mikele,restaurant,40.7185032,-74.0048891
Blue Bottle Coffee,cafe,40.7184787,-74.0024786
Funny BBQ 98,restaurant,40.7176912,-73.9954117
Tofu Tofu,restaurant,40.7176273,-73.995453
Sapori,restaurant,40.7174105,-73.99854
Il Cortile,restaurant,40.7179541,-73.9981923
Casa Bella,restaurant,40.7180735,-73.9981277
Nickel & Diner,restaurant,40.7188128,-73.9995074
Alimama Tea,cafe,40.7157707,-73.9991388
Pasteur,restaurant,40.7167115,-73.9997085
Benvenuto Cafe Tribeca,restaurant,40.7193052,-74.0100953
Yves,restaurant,40.7201805,-74.009907
Caffé Bene,cafe,40.7210007,-74.0044453
One White Street,restaurant,40.719282,-74.0059677
Bubby's,restaurant,40.7198226,-74.0084234
Pepolino,restaurant,40.7207599,-74.0048947
M & J,restaurant,40.729234,-73.9780195
Soda Club,restaurant,40.7266906,-73.9798946
Yoli,restaurant,40.7216783,-73.9802976
Beauty & Essex,restaurant,40.7204577,-73.9870469
Arlene's Grocery,bar,40.7213285,-73.9883827
Serafina Ludlow,restaurant,40.720194,-73.9884455
Gather,cafe,40.7165943,-73.9908966
Yee Li,restaurant,40.7154802,-73.9977581
Spicy Village,restaurant,40.7184544,-73.9916942
Grey Lady,bar,40.7188615,-73.9902614
Lian Jiang,restaurant,40.7143686,-73.9938106
Le Dive,bar,40.7147362,-73.9909568
Sobak,restaurant,40.7149394,-73.9916253
Aujla's,cafe,40.7157755,-73.9907804
Unknown,restaurant,40.7328539,-74.0084687
Superfine,restaurant,40.7023397,-73.9874667
Hudson Wilder,cafe,40.7037349,-73.9879047
Cafe Gitane,cafe,40.7028271,-73.9812328
Front Street Pizza,restaurant,40.7024461,-73.9894328
Al Mar,restaurant,40.7026053,-73.9891503
Seamore's,restaurant,40.7031571,-73.9913143
Tiltz,bar,40.7027024,-73.9335517
Mulata,restaurant,40.7015154,-73.9194729
Hartbreakers,restaurant,40.7017044,-73.9228095
Keybar,bar,40.7000219,-73.9294579
Heaven,bar,40.7054103,-73.9258671
L.A. Burrito,restaurant,40.7023518,-73.9283746
BrookLAN,bar,40.7052863,-73.924297
Nook,cafe,40.7050225,-73.924656
Variety Coffee Roasters,cafe,40.702775,-73.9170325
Boobie Trap,bar,40.7001545,-73.9160836
UCrew,cafe,40.7003347,-73.9052907
La Cantine,cafe,40.706715,-73.9205244
Vacations Bar & Rooftop,bar,40.7083488,-73.9203645
Cafe Katan,cafe,40.7097406,-73.9079364
Bosna Express,restaurant,40.7048677,-73.902327
Unknown,restaurant,40.7108641,-73.9052871
Da Andrea,restaurant,40.7361321,-73.995801
Shu Han Ju,restaurant,40.7355636,-73.9983744
Wogies,restaurant,40.7353785,-74.0005664
Elephant and Castle,restaurant,40.7362261,-74.0007468
Empellon Taqueria,restaurant,40.7341405,-74.0030338
Sevilla,restaurant,40.7348424,-74.0030609
Cowgirl,restaurant,40.7338239,-74.0064618
Frankies Sputino 570,restaurant,40.7356858,-74.0058055
Roasting Plant,cafe,40.736735,-74.0013586
Catch NYC,restaurant,40.7402994,-74.006242
Gaslight Lounge,bar,40.7409011,-74.005668
Valbella,restaurant,40.7408702,-74.0070261
Jack's Coffee,cafe,40.7408955,-74.0070903
Serafina,restaurant,40.7396132,-74.0065802
cubbyhole,bar,40.7376427,-74.0037475
Arthur & Sons,restaurant,40.7380098,-74.0040853
Kung Fu Tea,cafe,40.717109,-73.9945679
Bobby Van's Steakhouse - Park Ave,restaurant,40.754603,-73.9756765
Blu Café,cafe,40.7766224,-73.9890983
Crêpes on Columbus,cafe,40.8010399,-73.9618044
Ortomare Ristorante Pizzeria,restaurant,40.8011509,-73.9617243
Miss Mamie's Spoonbread Too,restaurant,40.8014541,-73.9609048
Mekong,restaurant,40.7983898,-73.9632427
Pan d'oro,cafe,40.7532069,-73.9806932
Han Dynasty,restaurant,40.7875393,-73.9764459
Miriam,restaurant,40.7801424,-73.980766
Eléa,restaurant,40.7875985,-73.9766092
RedFarm,restaurant,40.7820656,-73.9806301
Serafina,restaurant,40.782208,-73.9805845
Gazala's,restaurant,40.7845848,-73.9770343
Blue Ginger,restaurant,40.7405843,-74.0016421
Chelsea Ristorante Italiano,restaurant,40.7406485,-74.0015951
Bòcàphê,restaurant,40.7405215,-74.0016881
16 Handles,cafe,40.7428458,-73.9999943
The Brew Inn,bar,40.7310173,-73.9541919
Frost Restaurant,restaurant,40.7183487,-73.9431505
Starbucks,cafe,40.7047913,-74.0071236
Ninth Street Espresso,cafe,40.7607479,-73.9706036
Ecuatoriana Restaurant,restaurant,40.8241234,-73.9481734
Mike's Bagels,cafe,40.8414095,-73.9398998
Starbucks,cafe,40.8413365,-73.9399524
Yellow Banana Snack Bar,cafe,40.8235504,-73.9490856
La Esquina del Salmon,restaurant,40.8214023,-73.954469
Hamido Seafood,restaurant,40.7755528,-73.9096175
Alba's Pizza,restaurant,40.7738431,-73.9077307
Café Metro,cafe,40.7634192,-73.981318
Burger Man,restaurant,40.7604501,-73.9839884
Pink Taco,restaurant,40.7554443,-73.987112
Starbucks,cafe,40.7608044,-73.9837222
Idaho,bar,40.7309012,-73.9833892
Buffalo Wild Wings,restaurant,40.7309843,-73.983062
Fattoush,restaurant,40.7308818,-73.9831335
Veeray  Dhaba,restaurant,40.7307963,-73.9827498
Onion Tree Pizza Co,restaurant,40.7304977,-73.9829866
Gena's Grill,restaurant,40.7303986,-73.9830423
Motorino,restaurant,40.7302858,-73.9839142
S'MAC,restaurant,40.7301897,-73.9836385
Sao Mai,restaurant,40.7303381,-73.9835297
Hard Rock Cafe,restaurant,40.8285243,-73.9260199
NYY Steak,restaurant,40.8286243,-73.9259124
Starbucks,cafe,40.75555,-73.9840554
Dos Caminos,restaurant,40.7558726,-73.9704163
Dylan Murphy's,bar,40.7762933,-73.9555644
Starbucks,cafe,40.7774839,-73.9552436
Starbucks,cafe,40.7794817,-73.9537572
Hill Country Barbecue Market,restaurant,40.7442736,-73.9904326
Latin American Restaurant,restaurant,40.7443244,-73.9900461
Starbucks,cafe,40.7438766,-73.9887987
Pizza a Casa - Pizza School,restaurant,40.7163894,-73.9887152
SLDR,restaurant,40.761402,-73.923843
Tappo,restaurant,40.743266,-73.991263
Starbucks,cafe,40.7659236,-73.9636686
Starbucks,cafe,40.7746444,-73.9543658
44 & X,restaurant,40.7609658,-73.994264
The Marshal,restaurant,40.7612529,-73.994034
Social Lounge,bar,40.7612883,-73.9871051
Grey Bar & Restaurant,bar,40.7445509,-73.9905594
Rue 57,restaurant,40.7640716,-73.97711
Starbucks,cafe,40.7636753,-73.9773838
Bareburger,restaurant,40.7777449,-73.9490289
Le Pain Quotidien,cafe,40.7653752,-73.9575093
Starbucks,cafe,40.7791466,-73.9474467
Kofoo,restaurant,40.7427924,-73.9920482
Mariella Pizza,restaurant,40.7692128,-73.9629325
Danny's Pizzeria,restaurant,40.7077942,-73.9397036
Starbucks,cafe,40.7452192,-73.9908474
Cibo e Vino,restaurant,40.7899898,-73.9748354
Effy's Café,restaurant,40.7929644,-73.9682281
Au Jus,restaurant,40.7967968,-73.9705805
JR Sushi 2,restaurant,40.7152802,-74.009614
V&T Pizzeria,restaurant,40.8033532,-73.9638344
Enthaice,restaurant,40.7631303,-73.9213069
Serra Alpina,restaurant,40.7423105,-73.9898043
Stix,restaurant,40.739754,-73.9857245
Pio Pio,restaurant,40.7796578,-73.9471089
Bond 45,restaurant,40.7592344,-73.9863162
Planet Hollywood,restaurant,40.7578614,-73.9850206
Bubba Gump Shrimp Company,restaurant,40.7572318,-73.9863898
O'Casey's Irish Bar,bar,40.7593668,-73.987235
Applebee's,restaurant,40.7614452,-73.9837559
Ellen's Stardust Diner,restaurant,40.7618484,-73.9835031
Starbucks,cafe,40.7620837,-73.9833543
Starbucks,cafe,40.7590282,-73.9926029
Starbucks,cafe,40.7799038,-73.9597037
Blue Fin,restaurant,40.7593659,-73.9852973
Havana Central,restaurant,40.7583345,-73.9841851
Ampersand,bar,40.7386819,-73.9834817
Subject,bar,40.7214899,-73.9846873
The Library,bar,40.7226253,-73.9862488
Queen of Sheba,restaurant,40.7619583,-73.993564
The Flame,restaurant,40.7685722,-73.985481
Aubergine Cafe,cafe,40.746016,-73.9144787
Holland Bar,bar,40.7567953,-73.9935819
The Tippler,bar,40.7423493,-74.0061823
Fatbird,restaurant,40.7410242,-74.0049583
chalait,cafe,40.7422223,-74.0046642
Jet's Pizza,restaurant,40.7430204,-74.0036128
Artichoke Basille's Pizza,restaurant,40.7440791,-74.0065645
Star On 18,cafe,40.744475,-74.0062646
Fellini Coffee,cafe,40.7445639,-73.9992418
Oiji Mi,restaurant,40.7396655,-73.9924935
Gotham Coffee Roasters,cafe,40.7397486,-73.9926774
CAVA,restaurant,40.7416972,-73.9934425
Malibu Diner,restaurant,40.7438586,-73.9946656
Fle-Fle Grill,restaurant,40.7450671,-73.9983943
Lions & Tigers & Squares Detroit Pizza,restaurant,40.74506,-73.9983358
Grand Sichuan,restaurant,40.74735,-74.000974
Shukette,restaurant,40.7471473,-74.0005212
Sullivan Street bakery,cafe,40.7473252,-74.000383
Tracks,bar,40.7494986,-73.993225
Pennsylvania 6,restaurant,40.7483929,-73.9906659
Niles NYC,restaurant,40.7488386,-73.9919696
Yong Kang Street,restaurant,40.7482027,-73.9887195
Gramercy Cafe,cafe,40.735181,-73.9860339
Bar Jamón,bar,40.7358748,-73.98712
Sunburst Espresso Bar,cafe,40.7359816,-73.98546
Casa Mono,restaurant,40.7359257,-73.9871655
Gramercy Bagels,cafe,40.7371981,-73.9845693
Manhattan Indian Flavor,restaurant,40.7350273,-73.9832212
Mon Cheri,cafe,40.7352652,-73.983052
L'Angeletto,restaurant,40.735401,-73.9829582
Rolf's,restaurant,40.737989,-73.983522
Seven Sins,bar,40.7384419,-73.9832066
Yi Fang Tea,cafe,40.7408146,-73.983604
The Broken Shaker,bar,40.739805,-73.984357
Bao Bao Cafe,restaurant,40.7408893,-73.9835474
AWOL Bar and Grill,bar,40.7399496,-73.9821051
Mexico Lindo,restaurant,40.7397696,-73.9797637
Sahara's,restaurant,40.7414352,-73.9785461
Curry in a Hurry,restaurant,40.7426823,-73.9822532
Little Basil,restaurant,40.7410605,-73.9822863
Street Taco,restaurant,40.7408917,-73.981874
Kailash Parbat,restaurant,40.7420659,-73.9826947
Fada,restaurant,40.7175442,-73.9560416
Chez Jacqueline,restaurant,40.7282859,-74.0017773
Marcella,restaurant,40.7280654,-74.0017062
Song’ E Napule,restaurant,40.7281274,-74.001839
Comodo,restaurant,40.727606,-74.0023607
12 Chairs,restaurant,40.7275501,-74.0024076
Mee Noodle Shop,restaurant,40.7653574,-73.9878362
Norma,restaurant,40.765547,-73.9876852
Unknown,restaurant,40.8505216,-73.9649312
Morton's The Steakhouse,restaurant,40.7096869,-74.0139312
Bill's Bar and Burger,restaurant,40.7094546,-74.014076
Skinos,restaurant,40.709192,-74.0138424
Dos Caminos,restaurant,40.7422679,-73.9846255
Lahori Kabab,restaurant,40.742323,-73.9828805
Nonono,restaurant,40.745401,-73.9848544
Upside Pizza,restaurant,40.8052453,-73.9655826
Tea Magic,cafe,40.8052024,-73.9656144
Jams,restaurant,40.7647657,-73.9766475
Salon de Ning,bar,40.7616016,-73.9751953
Estiatorio Milos,restaurant,40.7636288,-73.9791548
Astro Restaurant,restaurant,40.7632094,-73.9782428
Faces and Names,bar,40.7635051,-73.9809828
Soulvlakigr,restaurant,40.7646369,-73.9802846
La Esquina,restaurant,40.764288,-73.981397
PHD Terrace,bar,40.7645279,-73.9819605
Premier Deli Café,cafe,40.7641932,-73.9812315
Thai Chai Kitchen,restaurant,40.7654403,-73.9835817
Bantry Bay Publik House,bar,40.7356948,-73.9347062
Donsbogam Original,restaurant,40.746788,-73.9843691
ETC Eatery,restaurant,40.7479712,-73.9846943
BCD Tofu House,restaurant,40.7475091,-73.9860606
Blank Slate Coffee + Kitchen,cafe,40.7456894,-73.9851162
Vezzo,restaurant,40.7444593,-73.9813057
Cinco Coffee Company,cafe,40.7482758,-73.9823964
Pastrami and Grill,restaurant,40.7552441,-73.9945593
Snack EOS,restaurant,40.7563648,-73.9939169
La-Sani Grill,restaurant,40.7571191,-73.9938012
Grace Cafe,cafe,40.7547832,-73.9913539
Upside Pizza,restaurant,40.7551601,-73.9910642
Mexicue,restaurant,40.7541088,-73.9860614
Magic Hour,bar,40.7523932,-73.9893008
Mémé Mediterranean,restaurant,40.7609011,-73.9947642
DBL,bar,40.7627758,-73.9933967
Mr Bigg's Bar & Grill,restaurant,40.7603332,-73.9947365
Hallo Berlin,restaurant,40.7610811,-73.9941852
Kochi,restaurant,40.7620108,-73.9935128
Chelsea Grill,restaurant,40.7613804,-73.9907136
Qi,restaurant,40.7620625,-73.9897658
Pocket Bar,bar,40.7633931,-73.9923609
Back Pocket Bar,bar,40.763866,-73.9920297
The Red Stache,bar,40.76498,-73.9883465
Wondee Siam,restaurant,40.7647706,-73.987788
The Meatball Shop,restaurant,40.7651951,-73.9874674
Churrascaria Plataforma,restaurant,40.7620192,-73.987651
Times Square Diner & Grill,restaurant,40.7615479,-73.9868708
Rosa Mexicano,restaurant,40.7711518,-73.9831211
Harry Cipriani,restaurant,40.7643866,-73.972705
Rubby Pizzeria Restaurant,restaurant,40.7687413,-73.9886105
Rex,cafe,40.7688283,-73.9885588
Masseria dei Vini,restaurant,40.7684081,-73.9855927
Masseria Caffé & Bakery,cafe,40.7685278,-73.9855197
Villa Berulia,restaurant,40.7469172,-73.9805077
Mad Dog & Beans Mexican Cantina,restaurant,40.7507533,-73.9819745
Mr Chow,restaurant,40.7587671,-73.9644197
Yezo Isankaya,restaurant,40.7542073,-73.968608
The Smith,restaurant,40.7552632,-73.968022
P.J. Clarke’s,restaurant,40.7589826,-73.9682301
Tensai,restaurant,40.7559526,-73.9693724
Nations Café,cafe,40.7532252,-73.9668578
Pennylane Coffee,cafe,40.7516393,-73.9702273
Centro Latino II,cafe,40.7895331,-74.0055323
Barnes Bistro,restaurant,40.7530685,-73.9716289
Yakiniku TORAJI,restaurant,40.7510434,-73.9727833
La Chula,restaurant,40.7988313,-73.9416629
Sam's Place,restaurant,40.7493393,-73.9772354
Take Care,restaurant,40.7483628,-73.9781141
Tam Sang,restaurant,40.7493894,-73.9773773
Sachi,restaurant,40.7476501,-73.9740389
Gong Cha,cafe,40.7521428,-73.9739415
Aroma Espresso Bar,cafe,40.7506675,-73.973776
Serafina Italian Restaurant,restaurant,40.7500156,-73.9811517
Yakitori Torishin,restaurant,40.7650575,-73.987136
Alfie's,restaurant,40.7653775,-73.9873248
Broadway Comedy Club,bar,40.7644572,-73.985746
Chop & Go,restaurant,40.7591744,-73.9702294
Maman,cafe,40.7599011,-73.9696793
Starbucks,cafe,40.7503295,-73.9770276
Devocion,cafe,40.7580277,-73.9714246
King Cole Bar,bar,40.7613571,-73.9744256
Sushiann,restaurant,40.7579822,-73.9742003
Starbucks,cafe,40.7583219,-73.9741196
Starbucks,cafe,40.7563907,-73.9782057
Villa Fresh Italian Kitchen,restaurant,40.7572061,-73.9893098
Dallas BBQ,restaurant,40.7569552,-73.9887186
Margaritaville,restaurant,40.7550162,-73.9880032
China River,restaurant,40.7582012,-73.9883065
Carmine's,restaurant,40.7575108,-73.9867126
Rum House,bar,40.7597407,-73.9861863
Frankie and Johnie's Steakhouse,restaurant,40.7600472,-73.9888591
John's Pizzeria,restaurant,40.7582345,-73.9884017
Gong Cha,cafe,40.7602955,-73.9845027
Nanking,restaurant,40.7615479,-73.9837434
La Masseria,restaurant,40.7608991,-73.986314
Russian Vodka Room,bar,40.7634867,-73.9847984
FreeFoods,cafe,40.7557612,-73.9805909
Fogo de Chão,restaurant,40.7611533,-73.9779162
Teresa's,restaurant,40.7601327,-73.9787879
Sushi Ginza,restaurant,40.7591533,-73.9625239
Shaken Not Stirred,bar,40.7610284,-73.9611617
Merchants Cigar Bar,bar,40.7613974,-73.9608993
Moti Mahal Delux,restaurant,40.7620819,-73.9603873
Ritz Diner,restaurant,40.7617205,-73.9606568
Felice 64,restaurant,40.7625623,-73.9596
Loco Coco,restaurant,40.7650653,-73.965936
Pongsri,restaurant,40.7606849,-73.9865304
An'nam,restaurant,40.7606569,-73.9864408
Starbucks,cafe,40.7604406,-73.987191
Emmett's,restaurant,40.7273671,-74.0025442
Raku Soho,restaurant,40.7273101,-74.0025925
Villa Mosconi,restaurant,40.7285324,-74.0018748
Da Silvano,restaurant,40.7289641,-74.0022949
Cafe Edison,cafe,40.75965,-73.985965
Daniela Trattoria,restaurant,40.7592714,-73.9880841
Glass House Tavern,restaurant,40.7599261,-73.9866455
Scarlatto,restaurant,40.7598975,-73.9865625
Trattoria Trecolori,restaurant,40.7599596,-73.9867307
Two Boots Pizza,restaurant,40.7645432,-73.961697
Daniel,restaurant,40.7667776,-73.9675711
Chamoun's Way,restaurant,40.7645085,-73.958622
Gotham Green Cafe,cafe,40.7663762,-73.9599027
Donna Margherita,restaurant,40.7664758,-73.9598292
Patsy's Pizzeria,restaurant,40.7658031,-73.9576857
Starbucks,cafe,40.76607,-73.9574726
Mission Ceviche,restaurant,40.7691688,-73.957859
Stumble Inn,bar,40.771213,-73.9563888
Starbucks,cafe,40.7699331,-73.9546801
THEP,restaurant,40.7707302,-73.9571771
A La Turka Restaurant,restaurant,40.7700896,-73.9576457
Gong Cha,cafe,40.767958,-73.9637948
Tangs,restaurant,40.7722902,-73.9589738
Poppi,cafe,40.7698597,-73.9671261
Blenoir Crêpes and Cafe,restaurant,40.7690481,-73.9633799
Corrado Bread And Pastry,cafe,40.7692531,-73.9632427
Café Carlyle,cafe,40.7742485,-73.9629901
Harbs,cafe,40.7737711,-73.9578856
Le Petit Parisienne,cafe,40.7719283,-73.953579
Spice,restaurant,40.7711933,-73.9537403
Chirping Chicken,restaurant,40.7744908,-73.9539936
Flex Mussels,restaurant,40.7754167,-73.9562405
Sushi Ren,restaurant,40.7753109,-73.9533516
Gracie's Diner,restaurant,40.7771749,-73.9524957
Mimi's Pizza,restaurant,40.7785628,-73.9529619
Catch n' Chop,restaurant,40.7813175,-73.9523876
Al-Badawi,restaurant,40.7799787,-73.9504323
La Bomboniera,cafe,40.7826516,-73.9534733
Eli's Bar 91,bar,40.7839393,-73.9567416
Juice Generation,cafe,40.7773842,-73.9552806
Amber,restaurant,40.7749423,-73.957062
Lexington Candy Shop,restaurant,40.7775102,-73.9572158
fresh&co,restaurant,40.7787743,-73.9562897
Bocado Cafe,restaurant,40.7802154,-73.9548959
Daily Provisions,cafe,40.7873253,-73.9538938
Park Café,restaurant,40.7642327,-73.9807509
Redeye Grill,restaurant,40.7650918,-73.9805946
The Greek Kitchen,restaurant,40.7697543,-73.9883234
Atlantic Grill,restaurant,40.7720849,-73.9813978
Starbucks,cafe,40.7748547,-73.9841451
Empire Szechuan,restaurant,40.77522,-73.9801757
Chanson,cafe,40.777108,-73.9817979
Vanguard Wine Bar,bar,40.7764286,-73.9829972
Cafe Luxembourg,restaurant,40.777411,-73.9831224
Shinbashi 72,restaurant,40.7788967,-73.9827653
Felice Columbus,restaurant,40.7769663,-73.9793341
Dakota Bar,bar,40.7774878,-73.9785066
Juice Generation,cafe,40.7778296,-73.9793656
Simply Noodles,restaurant,40.7788474,-73.9812288
Salumeria Rosi,restaurant,40.7793592,-73.9808591
Asset,restaurant,40.7795342,-73.9769922
Sempre Oggi,restaurant,40.7803309,-73.9799393
Unknown,restaurant,40.7795405,-73.977468
Le Pain Quotidien,cafe,40.7819863,-73.9813099
New Cottage Restaurant,restaurant,40.7831711,-73.980799
Daily Provisions,cafe,40.7822863,-73.9787291
Wafels & Dinges,cafe,40.7818389,-73.9757879
Swagat,restaurant,40.7835143,-73.9778183
Uno Pizzeria & Grill,restaurant,40.7832166,-73.9748026
La Sirène,restaurant,40.7838129,-73.978072
Zabar's Cafe,cafe,40.7847359,-73.9796748
Tiki Chick,bar,40.7868369,-73.9753999
Bodega 88,restaurant,40.7874733,-73.9712259
Vive La Crepe!,restaurant,40.7863208,-73.9725206
Starbucks,cafe,40.7867605,-73.9722137
Mila Cafe,restaurant,40.7914865,-73.9688503
Peacefood Cafe,restaurant,40.7852776,-73.9770179
New Kam Lai,restaurant,40.7869241,-73.9758011
Maison Pickle,restaurant,40.7870205,-73.9779679
Café One,cafe,40.8220999,-73.9496705
Bodrum,restaurant,40.7893232,-73.9740535
Dragon 89,restaurant,40.7900181,-73.9735411
Chick Chick,restaurant,40.7902226,-73.9733936
Tal Bagels,cafe,40.7910099,-73.9741121
Holy Schnitzel,restaurant,40.7914735,-73.9724809
Fillup Coffee,cafe,40.7921965,-73.9732253
Talia's Steakhouse,restaurant,40.7919611,-73.9721475
Shawarma Shabazi,restaurant,40.7920135,-73.9721099
Izzy's Brooklyn Smokehouse,restaurant,40.7917348,-73.9723098
Rancho Tequileria,restaurant,40.7933325,-73.9711112
La Nueva Victoria Restaurant,restaurant,40.7937683,-73.972093
Baazi,restaurant,40.7955918,-73.9707481
Broadway Dive,bar,40.7978913,-73.9690987
Flor De Mayo,restaurant,40.7977664,-73.9698654
Shiny Tea NY,cafe,40.7982405,-73.9695072
Sal & Carmine Pizza,restaurant,40.7983425,-73.9694321
Ollie's,restaurant,40.799428,-73.9687022
Cajun Halal Platters,restaurant,40.7995109,-73.968661
Zurna,restaurant,40.7997453,-73.9685447
Café du Soleil,restaurant,40.8000965,-73.9683967
Traviata Pizza II,restaurant,40.8012195,-73.9681803
Columns Wine Bar,bar,40.8009462,-73.9676253
Benny’s Chao King,restaurant,40.7982983,-73.9638001
City Coffee Bar,cafe,40.7984682,-73.9636775
The Moon Fish Market,restaurant,40.7980144,-73.9635291
Saiguette,restaurant,40.7990256,-73.9627891
Pizza Hut,restaurant,40.7994636,-73.9629344
Park Cafe,cafe,40.7994859,-73.9610681
Halal Chicks,restaurant,40.7999441,-73.9621165
Super Nice Pizza,restaurant,40.8015676,-73.9646575
Lion's Head Tavern,bar,40.802193,-73.9641798
Mizu Hibachi,restaurant,40.8007904,-73.9656898
Bánh Shop House,restaurant,40.8008545,-73.9656397
108 Food Dried Hot Pot,restaurant,40.8027137,-73.9673714
Gong Cha,cafe,40.8031673,-73.9670896
Amity Hall Uptown,restaurant,40.802258,-73.9646355
Roti Roll (Bombay Frankie),restaurant,40.8025909,-73.9643696
La Isla Restaurant,restaurant,40.7902892,-73.9453843
Sol Maya,restaurant,40.7905474,-73.9427168
Alison,bar,40.7909848,-73.9470267
El Nuevo Caribeno,restaurant,40.7916166,-73.9465711
East Harlem Bottling Co,restaurant,40.7929592,-73.9455878
Jaguar,restaurant,40.793587,-73.9451239
Safari Harlem,restaurant,40.8005894,-73.9527099
Claire's Kitchen Cafe,cafe,40.7997636,-73.9526587
Lalibela,restaurant,40.8023112,-73.9566682
BIXI Harlem,restaurant,40.8048187,-73.9548295
Koronet Pizza,restaurant,40.8044412,-73.9661746
Sapps,restaurant,40.8055983,-73.9653069
Sam’s Famous Pizza,restaurant,40.7984191,-73.9415796
El Nuevo Caridad,restaurant,40.7969303,-73.9380482
Sandy Restaurant,restaurant,40.7972174,-73.9378376
Rao’s,restaurant,40.7939234,-73.9342665
Barawine,bar,40.80454,-73.9474459
Kennedy Fried Chicken & Pizza,restaurant,40.8142537,-73.9367717
Empire Chinese Restaurant,restaurant,40.8191781,-73.940541
Polanco Restaurant B.B.Q.,restaurant,40.8192262,-73.9405059
The Edge,restaurant,40.8198671,-73.9460727
The Grange,restaurant,40.8225009,-73.9493735
Hamilton's Bakery and Cafe,cafe,40.8274731,-73.9493563
Nikko Hibachi Asian Fusion,restaurant,40.8114761,-73.9579151
Bar 314,restaurant,40.8141651,-73.9597532
Max Soha,restaurant,40.8112405,-73.9580424
Broadway Au Lait,cafe,40.8113713,-73.961115
Kuro Kuma,cafe,40.8140293,-73.959994
Pisticci,restaurant,40.8141743,-73.9603481
La Salle Dumpling Room,restaurant,40.8140333,-73.9598316
Starbucks,cafe,40.8150497,-73.9590898
The Expat,bar,40.8154613,-73.9600115
Jin Ramen,restaurant,40.8153944,-73.9588496
Motorino,restaurant,40.7104673,-73.9635085
OTB,bar,40.7104506,-73.9634473
Velvet Lounge,bar,40.7099118,-73.96273
The Palm Restaurant,restaurant,40.7516726,-73.9710941
Prova Pizzabar,restaurant,40.7523035,-73.9894117
Afghan Kabab & Grill House,restaurant,40.7335812,-73.9549785
Triangolo Pizzeria,restaurant,40.733627,-73.9549862
Community Food & Juice,restaurant,40.8059481,-73.9657438
Blue Bottle Coffee,cafe,40.8062968,-73.9654905
Poke Station,restaurant,40.8430348,-73.9394044
La Dinastia Restaurant,restaurant,40.8431777,-73.9393928
Malecon,restaurant,40.8464635,-73.9385779
Manolo,restaurant,40.847173,-73.938357
Poción Lounge,restaurant,40.847528,-73.938419
Chicken Ranch,restaurant,40.8483931,-73.9324029
Munchies,restaurant,40.8488894,-73.9342703
Au Jus,restaurant,40.8492955,-73.9364209
Tampopo Ramen,restaurant,40.8505834,-73.9364784
Sushi Yu 2,restaurant,40.8519916,-73.9350299
Saggio,restaurant,40.851374,-73.9394905
Refried Beans Mexican Grill,restaurant,40.8549554,-73.9371041
Fresco's Pizzeria,restaurant,40.8551515,-73.9373517
Yang Garden,restaurant,40.8552708,-73.9377099
Grito,restaurant,40.8535476,-73.9308711
Vegan Quick Bites by Next Stop Vegan,restaurant,40.8559656,-73.9286418
Tampopo Kitchen,restaurant,40.8553005,-73.9371769
Dyckman Cafe & Grill,cafe,40.8618825,-73.9251616
Yummy Thai,restaurant,40.8680756,-73.9204967
Starbucks,cafe,40.7663043,-73.9829515
Seis Vecinos,restaurant,40.8153204,-73.9031697
Coffee Donuts,cafe,40.8370735,-73.9098361
Liberato Restaurant,restaurant,40.8585533,-73.9039988
Liberato Restaurant,restaurant,40.8537083,-73.9080019
Roebling Sporting Club,bar,40.7169763,-73.9546566
Salsa Con Fuego,restaurant,40.8622004,-73.9113629
Nur Thai,restaurant,40.7596873,-73.926994
La Gata Golosa,restaurant,40.7619505,-73.9256567
Starbucks,cafe,40.7116433,-74.0066898
Épicerie Boulud,cafe,40.7112884,-74.0102748
3 Times Dim Sum,restaurant,40.7033341,-74.0106724
Smorgas Chef,restaurant,40.7043755,-74.0103859
Bodega Gran Via,restaurant,40.704458,-74.0102766
Suited,cafe,40.7092434,-74.0078826
Cobble & Co,restaurant,40.7070094,-74.0035612
Urban Cove Society & Kitchen,restaurant,40.707989,-74.0014511
Cowgirl Seahorse,restaurant,40.7082323,-74.0005339
Takahachi Bakery,cafe,40.7137279,-74.0084336
Wo-Hop,restaurant,40.714289,-73.9988678
Shanghai 21,restaurant,40.7144241,-73.9988882
Peachy's,bar,40.7143387,-73.9980744
Buddha Bodai,restaurant,40.713865,-73.9987984
Café Grumpy,cafe,40.7426583,-73.9983133
Café Grumpy,cafe,40.7151271,-73.9901425
Mr. Fong's,bar,40.7124273,-73.9942509
CC’s Cafe,cafe,40.7116726,-73.9946073
Joe Pro Shop & Headquarters,cafe,40.7422365,-73.9949484
Fei Tenc Seafood,restaurant,40.7138263,-73.9948732
Shui Mei Cafe,restaurant,40.713556,-73.9947941
The Comfort Diner,restaurant,40.7522777,-73.9723289
Eastwood,restaurant,40.7141721,-73.987061
The Doughnut Plant,cafe,40.7163413,-73.9885359
Saluggi's East,restaurant,40.7160067,-73.9874972
Manousheh,restaurant,40.7159851,-73.9874254
Black Crescent,bar,40.7189562,-73.9850248
Caracas Arepa Bar,restaurant,40.7198762,-73.9830171
Balvanera,restaurant,40.7205874,-73.9853737
Remedy Diner,restaurant,40.7217736,-73.9854765
The Mayfly,bar,40.7215253,-73.9846546
Hane,restaurant,40.7346437,-73.9797605
Townhouse Diner,restaurant,40.7469948,-73.9740131
El Pote Español,restaurant,40.7475626,-73.973629
Ground Central,cafe,40.7474254,-73.9737287
Hungarian Pastry Shop,cafe,40.803562,-73.9636828
Le Pain Quotidien,cafe,40.7729961,-73.9742495
Gina's Pizzeria,restaurant,40.7410074,-73.9038191
Meadowsweet,restaurant,40.7103472,-73.9631701
Reben Luncheonette,restaurant,40.7089856,-73.9590515
Win Son,restaurant,40.7074472,-73.9433955
Nyla,cafe,40.7076759,-73.9516638
La Milagrosa,bar,40.7117087,-73.9573417
Bushwick Pita Palace,restaurant,40.7075295,-73.9396531
Roberta's,restaurant,40.7050062,-73.9335894
Forever Thai,restaurant,40.7039424,-73.9310371
SEY Coffee,cafe,40.7054219,-73.9323788
Musashi,restaurant,40.7110567,-73.9514148
Los Tacos Mcondo,restaurant,40.7108455,-73.9509231
La Taqueria,restaurant,40.7110336,-73.9489993
Sandwich Shop,restaurant,40.7112752,-73.9461178
La Norteña,restaurant,40.7111555,-73.9440111
Muz Muz CBD Lounge,cafe,40.7125301,-73.9438874
Haymaker's Corner Store,restaurant,40.7126586,-73.9476185
Magdalena,restaurant,40.712518,-73.9489879
Mad For Chicken,restaurant,40.7114237,-73.9475078
Here,cafe,40.7139069,-73.9418565
Birds of a Feather,restaurant,40.7143133,-73.9605332
Samurai Mama,restaurant,40.7141481,-73.96014
We Got Company,bar,40.7141936,-73.9539085
Little Ruby's,restaurant,40.7191551,-73.958603
Café Colette,restaurant,40.71977,-73.9576296
Fat Goose,restaurant,40.7201044,-73.9596332
George & Jacks Tap Room,bar,40.7190488,-73.9584127
Antica Pesa,restaurant,40.7188206,-73.9586332
Moonburger,restaurant,40.7194662,-73.9561323
Sweet Chick,restaurant,40.7183598,-73.9573228
Hotel Delmano,bar,40.7197084,-73.9580192
Teddy's,restaurant,40.7193349,-73.9584205
D.O.C. Wine Bar,restaurant,40.7196748,-73.96045
Rosarito Fish Shack,restaurant,40.7194963,-73.9606455
Rose Wolf Coffee,cafe,40.7147488,-73.9400571
Alkemy Brewlab,cafe,40.7260331,-73.9391293
Archie's Pizza,restaurant,40.719117,-73.9454171
Destefano's Steakhouse,restaurant,40.7146231,-73.9496019
Hummus Market,restaurant,40.7154162,-73.9447028
Taste of Heaven,restaurant,40.7171398,-73.9405413
Sal's Pizzeria,restaurant,40.7131683,-73.9490971
Suzume,restaurant,40.7132118,-73.9493567
Jr & Son,bar,40.7141955,-73.9495111
Pecoraro Latteria,cafe,40.7140816,-73.9478315
Lorimer Market,restaurant,40.715583,-73.9495032
Bonnie's,restaurant,40.7178242,-73.9465104
Daytime,cafe,40.71746,-73.9450305
Muchmore's,bar,40.7165204,-73.9528665
Lilia,restaurant,40.7176165,-73.9524013
Night of Joy,bar,40.7169821,-73.9499766
Krolewskie Jadlo,restaurant,40.7252852,-73.9514807
Hide & Seek,cafe,40.7229766,-73.950475
Manhattan Triple Decker Restaurant,restaurant,40.7252458,-73.9517659
Nights and Weekends,restaurant,40.7238537,-73.9510984
Bernie's,restaurant,40.7218799,-73.9505713
The Hidden Pearl,bar,40.7235576,-73.9508866
Idle Mind Tavern,bar,40.7236291,-73.9508551
Café Grumpy,cafe,40.7285374,-73.9486571
Gator,restaurant,40.7257771,-73.951074
Edy’s Grocer,restaurant,40.7275194,-73.9510341
Lite Bites,restaurant,40.7255996,-73.9517047
Allswell,bar,40.7196459,-73.9559407
Spritzenhaus,bar,40.7232306,-73.9527481
Yuu,restaurant,40.7233679,-73.9523393
Mabel's Smokehouse,restaurant,40.7210681,-73.9567687
Kinfolk Studios,bar,40.7217038,-73.9582538
Littleneck Outpost,cafe,40.7292924,-73.95735
Chez Ma Tante,cafe,40.7269042,-73.9573871
La Paris Dakar,cafe,40.7324479,-73.9543033
Odd Fox,cafe,40.7327188,-73.9545157
The Moonlight Mile,bar,40.7321469,-73.9578047
Thai Cafe,restaurant,40.7310273,-73.9545589
Madeline's,bar,40.7302402,-73.9578047
The White Elephant,bar,40.7350479,-73.9552161
Achilles Heel,bar,40.7331765,-73.9596929
O Neil's,restaurant,40.7289179,-73.9005494
Pollos Mario,restaurant,40.7447101,-73.9024149
Los Tacos del Viejon,restaurant,40.7456404,-73.9017067
Three Bowls Ramen,restaurant,40.7457839,-73.9003602
Charlie's Sports Bar,bar,40.7419229,-73.904621
Sik Gaek,restaurant,40.7434176,-73.9153755
Los Cuencantinos,restaurant,40.7447709,-73.909924
The Wild Goose,bar,40.7447817,-73.9098649
Tito Rad's Grill,restaurant,40.7425119,-73.9155746
Bolivian Llama Party,restaurant,40.7393286,-73.920742
New Asian Cuisine,restaurant,40.7393123,-73.9205614
Cafe Bliss & Organic Juice Bar,cafe,40.7395701,-73.9206272
Reyes,restaurant,40.7395041,-73.9195552
Thai Tree,restaurant,40.7378689,-73.9293765
Kasbah Cafe,restaurant,40.7389693,-73.9266383
Wonder Pig K-BBQ,restaurant,40.7439147,-73.9276511
Blended Smoothies,cafe,40.7418591,-73.9262321
China Garden,restaurant,40.7418023,-73.9257547
Cypriana,cafe,40.7420469,-73.9285338
Ten Full,restaurant,40.7400978,-73.9251433
Pecas y Algo Mas,restaurant,40.7415676,-73.9201916
Sofra Mediterranean Grill,restaurant,40.7427606,-73.9189002
Möge Tee,cafe,40.7429092,-73.918991
Dumplings & Things,restaurant,40.7423428,-73.9189849
MiraCali Bakery,cafe,40.7413798,-73.9191699
Giovanni's Mexican Food & Pizza,restaurant,40.7411757,-73.9180201
Los Verdes,restaurant,40.7423244,-73.9181068
Chihuahua Mexican Restaurant & Cantina,restaurant,40.7424335,-73.9177532
Curry Point,restaurant,40.7400632,-73.9236094
Finest Sushi,restaurant,40.7399439,-73.9238588
Marabella Pizza,restaurant,40.7401992,-73.9238536
Rogue Bar,bar,40.7403256,-73.9235631
Cap't Loui Seafood Boil,restaurant,40.743144,-73.9210367
Papa's Pasta,restaurant,40.7435758,-73.9247822
Mr. Buncha,cafe,40.7432719,-73.9242401
Moa Coffee,cafe,40.7422129,-73.9253981
Empire Szechuan Garden,restaurant,40.7435965,-73.9187293
Bliss 46 Bistro,restaurant,40.743505,-73.9187481
1 Buen Sabor,restaurant,40.7435189,-73.919231
Oki,restaurant,40.7435018,-73.9190873
Future Ramen,restaurant,40.7433836,-73.9180652
El Pilón,restaurant,40.7433755,-73.9179937
The Skillman,restaurant,40.7464624,-73.9181948
The Copper Kettle,restaurant,40.7459273,-73.9135566
Claret Wine Bar,bar,40.7464253,-73.9178829
Sanger Hall,bar,40.7461491,-73.9154379
Newa Chhe,restaurant,40.743753,-73.9212418
The Lowery,bar,40.7450823,-73.920947
Romanian Garden,restaurant,40.7450734,-73.9208719
The Spot Café,cafe,40.7450262,-73.9204706
Cardamom,restaurant,40.7438925,-73.9212315
Ariyoshi,restaurant,40.743943,-73.9228755
Soleluna,restaurant,40.7440886,-73.9240669
Bon Cafe & Restaurant,cafe,40.7439034,-73.922528
Zirve Grill,restaurant,40.7438597,-73.9221402
Tropical Smoothie Cafe,cafe,40.7442404,-73.9254492
TJ Asian Bistro,restaurant,40.7461768,-73.9135455
Sumnima Kitchen,restaurant,40.7463499,-73.9000036
What The Fish,restaurant,40.7539069,-73.9146306
Lenny's,restaurant,40.7340196,-73.9990241
Dar Lbahja,restaurant,40.7609525,-73.9090442
Café Renis,cafe,40.7609317,-73.9089978
The Brewery,bar,40.7601261,-73.9072703
Daybreak Grill,cafe,40.7548464,-73.9166408
Piccola Venezia,restaurant,40.7647283,-73.911783
Napoli's Bistro,restaurant,40.7633955,-73.9130465
Ma LaLa Chinese,restaurant,40.7629864,-73.9133499
Ddee Thai,restaurant,40.7629054,-73.9131802
Taco Veloz,restaurant,40.7555033,-73.9271504
Tacuba,restaurant,40.7560216,-73.9245423
Sunswick,bar,40.7565734,-73.9254957
El Mero Mero,restaurant,40.754011,-73.9239485
Thai 36,restaurant,40.7545497,-73.9257025
SVL Souvlaki Bar,restaurant,40.7564758,-73.9208408
Shawarma Spot,restaurant,40.7561132,-73.9211347
Mar's,restaurant,40.7583544,-73.9241302
Monika's Cafe Bar,cafe,40.7576335,-73.9224942
Círculo Español,restaurant,40.7586167,-73.9179393
Teamakers,cafe,40.7590916,-73.9187165
Tacoshi,restaurant,40.7583835,-73.9174536
Lotus1 Vietnamese,restaurant,40.7607289,-73.9155239
Gyro Uno pizzeria restaurant café,restaurant,40.7653156,-73.9136575
Riviera Maya,restaurant,40.7648522,-73.9144015
Kinship Coffee Cooperative,cafe,40.763595,-73.9150423
Le Petit Pêcheur,restaurant,40.7636888,-73.9142419
Comfort Land,restaurant,40.7638484,-73.914589
Duzan,restaurant,40.7686236,-73.9109508
Sands of Persia,cafe,40.7677861,-73.9116338
Gyro World Astoria,restaurant,40.7648691,-73.9173484
ASAP! Pizza,restaurant,40.766241,-73.9149999
Chip City,cafe,40.7656278,-73.9192526
Kung Fu Tea,cafe,40.765578,-73.9192929
Halsey's Tavern,bar,40.7637379,-73.9215788
Coffee Lab,cafe,40.7627789,-73.9204923
Favella Grill,restaurant,40.7673366,-73.9179699
Mela Pizza,restaurant,40.7676435,-73.9206227
Gilbey's of Astoria,bar,40.7616422,-73.9243893
Boulis Cafe,restaurant,40.7646039,-73.9236121
The Grand 35th Avenue Diner,restaurant,40.7585537,-73.929091
Bellucci Pizza,restaurant,40.7676954,-73.9234307
Wake Cup,restaurant,40.767651,-73.9233348
Eastern Chinese Restaurant,restaurant,40.7656735,-73.9308223
Samaria Pizza,restaurant,40.7656552,-73.9307824
Rosa’s Pizza,restaurant,40.7671318,-73.9297972
Kelly's Bar,bar,40.7656185,-73.9266491
Malagueta,restaurant,40.7578849,-73.9321866
Aladdin Sweets and Restaurant,restaurant,40.7571637,-73.931277
Sabrosura Mexican Restaurant,restaurant,40.7570898,-73.9311189
Cali Bun,restaurant,40.7588059,-73.934788
Mia,restaurant,40.7711493,-73.9265695
New King Wah,restaurant,40.771989,-73.9258117
Roti Boti,restaurant,40.7718909,-73.9259717
Glasserie,restaurant,40.737712,-73.9561289
Riverview,restaurant,40.7439958,-73.9586344
Spice,restaurant,40.7441929,-73.9534569
Dorian Cafe,restaurant,40.7427676,-73.9538441
Casa Enrique,restaurant,40.7433617,-73.9542277
Niforos Corner,restaurant,40.7612651,-73.9401281
Coffee Shop,restaurant,40.75569,-73.9418423
3 Greeks Grill,restaurant,40.7620589,-73.9422597
The Melting Pot,restaurant,40.7618371,-73.9423877
Flor De Azalea,cafe,40.7650671,-73.9393789
New Champion Wok,restaurant,40.7550487,-73.9442587
House of Thai,restaurant,40.7535055,-73.9377484
Lim's Kitchen,restaurant,40.7549003,-73.9367939
Moon Kee,restaurant,40.7972702,-73.9695337
The Infamous,bar,40.7452481,-73.9475886
Panda Express,restaurant,40.7499146,-73.9394756
Coffeed,cafe,40.7519896,-73.9255705
Cafe Parioli,cafe,40.7750591,-73.9084654
Botte,bar,40.7748728,-73.9086889
Tru,restaurant,40.7745304,-73.9082035
Taverna Kyclades,restaurant,40.7743663,-73.9079583
Panda Express,restaurant,40.7755227,-73.911174
Mosaic,bar,40.7746159,-73.918453
Family Corner,restaurant,40.7779654,-73.9087372
Shawarmania,restaurant,40.7749016,-73.9119381
Mominette,restaurant,40.7032124,-73.9258662
Joe's Pub at the Public,bar,40.7291974,-73.9916255
Lupa,restaurant,40.7276391,-74.000211
Butterfly,restaurant,40.719376,-74.006475
Bisou Wine Bar,bar,40.723743,-74.004462
d Elici,cafe,40.709679,-74.0083821
The Coffee Bean & Tea Leaf,cafe,40.7102382,-74.0106426
The Garden at Studio Square,bar,40.7551056,-73.9251822
Otani,restaurant,40.70932,-74.008734
Bento Sushi,restaurant,40.7099489,-74.0100671
Starbucks,cafe,40.7182651,-74.007295
Square Diner,restaurant,40.718446,-74.007236
Coffee Project New York | Financial District,cafe,40.7071222,-74.0049867
Flavors,cafe,40.7065796,-74.0050348
Otto's Shrunken Head Tiki Bar,bar,40.7294965,-73.9786591
Chelsea Market Passage,restaurant,40.7428735,-74.0073403
Le Bain,bar,40.7412916,-74.0080457
Cafe 82,restaurant,40.785812,-73.9781778
Daily Chinese Restaurant,restaurant,40.7753835,-74.0197997
34th Bagels & More,cafe,40.7533516,-73.9957959
3 Streets Saloon,bar,40.7307334,-74.0009872
Tartine,restaurant,40.7363207,-74.0034558
New Green Bo,restaurant,40.7155657,-73.998017
The Irish Rover,bar,40.7658038,-73.914694
Chinese BBQ 东方烧烤,restaurant,40.8423972,-74.0010693
Luigi's Pizza,restaurant,40.7655786,-73.9834795
Matts Grill,restaurant,40.765484,-73.9835479
Unknown,restaurant,40.7658052,-73.9833111
Donburiya,restaurant,40.7653013,-73.9832463
Vizio,restaurant,40.7653274,-73.9833108
Nocello,restaurant,40.7653492,-73.983373
Yakitori Totto,restaurant,40.765264,-73.9831704
Palace Restaurant,restaurant,40.7610242,-73.9697542
The Fitz,restaurant,40.7605307,-73.969238
Dos Caminos,restaurant,40.740579,-74.0054009
Le Pain Quotidien,cafe,40.7412113,-74.004914
Old Homestead Steakhouse,restaurant,40.7412674,-74.0049042
Shorty Tang Noodles,restaurant,40.7402274,-74.0019425
Paradou,restaurant,40.739696,-74.0067809
RH Rooftop Restaurant,restaurant,40.7400703,-74.0064799
Revel,restaurant,40.7397251,-74.006849
Rainbow Falafel & Shawarma,restaurant,40.737266,-73.9909599
Chloe's Soft Serve Fruit Co.,restaurant,40.7373666,-73.9906671
Rare Bar and Grill,restaurant,40.745629,-73.9937463
The Graham,bar,40.7082233,-73.9432081
The Australian NYC,restaurant,40.7512973,-73.9838618
Olio e Più,restaurant,40.7337937,-73.9997745
Extra Virgin,restaurant,40.7353475,-74.0031806
Cafe Condesa,cafe,40.7343889,-74.002678
Bobo,restaurant,40.7344098,-74.002602
Sant Ambroeus,cafe,40.7354463,-74.0031986
Cafe Panino Mucho Gusto,cafe,40.7352996,-74.0062382
Jackson Hole,restaurant,40.7461765,-73.977565
Buenos Aires,restaurant,40.7252275,-73.9831134
Alcala,restaurant,40.7512208,-73.9717524
Keats,bar,40.7515392,-73.970732
Aretsky's Patroon,restaurant,40.7534898,-73.9733112
Juan Valdez Café,coffee,40.760572,-73.9687188
San Martin,restaurant,40.7557306,-73.9722031
Dun-Well Doughnuts,cafe,40.7074571,-73.9402479
Divya’s Kitchen,restaurant,40.7237147,-73.9883625
Bierhaus NYC,restaurant,40.752534,-73.9733861
Sosa Borella,restaurant,40.7623757,-73.9858109
Keens Steakhouse,restaurant,40.750773,-73.9864091
Old Man Hustle,bar,40.7138645,-73.9618377
Benoit,restaurant,40.7625321,-73.9772542
Bice,restaurant,40.7626071,-73.9775243
Il Corso,restaurant,40.762485,-73.9771512
Cellar Dog,bar,40.7336334,-74.0032842
Ceetay,restaurant,40.8071519,-73.9275766
Sushi of Gari,restaurant,40.7713448,-73.95278
Starbucks,cafe,40.7724449,-73.9499445
Izakaya NoMad,restaurant,40.7440806,-73.9894469
Dudleys,restaurant,40.7180802,-73.9903664
Cafe Katja,restaurant,40.7177277,-73.9905476
Sticky Rice,restaurant,40.717982,-73.9904169
Bar Valentina,bar,40.7178981,-73.99046
Roasting Plant,cafe,40.7177744,-73.9905236
Barrio Chino,restaurant,40.7179789,-73.9900488
Mictlān,restaurant,40.7152437,-73.991827
Bar Belly,restaurant,40.7151349,-73.9916523
Bacaro,restaurant,40.7145382,-73.9916726
Inatesso,restaurant,40.7059851,-74.0170998
Flower Power Cafe,cafe,40.7120232,-73.9412907
Grand Morelos,restaurant,40.7118038,-73.9436549
Bread Brothers,cafe,40.7082598,-73.9401186
The Tradesman Bar,bar,40.7081846,-73.9400945
Jessie's Bakery,cafe,40.7081622,-73.9397458
Dumpling Cafe,cafe,40.7123642,-73.939496
Blind Tiger,bar,40.7318556,-74.0032442
Tim Hortons,cafe,40.7504102,-73.9928259
Open Kitchen,restaurant,40.7053184,-74.0100991
Bluestone Lane Coffee,cafe,40.7062033,-74.011905
One Two Thai,restaurant,40.7455377,-73.9794683
Arepas Café,restaurant,40.7557723,-73.9277067
Emma Peel Room,bar,40.7183027,-73.9905315
Sunday to Sunday,cafe,40.7180119,-73.9901723
Aquavit,restaurant,40.7607818,-73.9721848
Mikaku,restaurant,40.7214189,-73.9969231
19 Cleveland,restaurant,40.7216382,-73.9972123
Café Select,restaurant,40.7217594,-73.9978239
Osteria Morini,restaurant,40.7219323,-73.9976726
The Market Table,restaurant,40.72978,-74.0037432
The Grey Dog,restaurant,40.7300039,-74.003915
Kahve,cafe,40.7644229,-73.9879761
Ben's Pizzeria,restaurant,40.7303941,-74.0003007
Blenheim,restaurant,40.7376761,-74.0040101
Mangia,restaurant,40.7638701,-73.9765096
Stumptown,cafe,40.7327952,-73.9979676
Oren's Daily Roast,cafe,40.7306205,-73.9951131
Starbucks,cafe,40.7779198,-73.978202
Caffe Storico,restaurant,40.779447,-73.9739529
Madame Sousou,cafe,40.7631897,-73.9219964
Bravo Pizza,restaurant,40.7342212,-73.9889762
Luke's Lobster,restaurant,40.7045322,-74.0109178
American Whiskey,bar,40.7493007,-73.9941316
Beer Culture,bar,40.759564,-73.9897134
Danji,restaurant,40.7640857,-73.9867718
Grasp Grill,restaurant,40.7567197,-73.9771339
Ootoya,restaurant,40.7548801,-73.9859787
Starbucks,cafe,40.7810251,-73.981008
Viand Cafe,restaurant,40.7807958,-73.9810743
La Pecora Bianca,restaurant,40.7804446,-73.9763391
Manny’s Bistro,restaurant,40.7762456,-73.9794042
Friedman's,restaurant,40.7770545,-73.9783768
Riposo 72,bar,40.7771024,-73.9785029
Starbucks,cafe,40.7469335,-73.9933215
Gregory's Coffee,cafe,40.746485,-73.9822904
Arte Cafe,restaurant,40.7781493,-73.978758
Tenzan,restaurant,40.778274,-73.9779356
Kiss My Slice,cafe,40.7557287,-73.9904972
Pick-A-Bagel,cafe,40.7736696,-73.9596624
Butler,cafe,40.7031934,-73.9924249
The Crooked Knife,restaurant,40.7451081,-73.9842044
Wine:30,restaurant,40.7449212,-73.9837645
Cafe Delectica,cafe,40.7452778,-73.9845987
Bella Napoli,restaurant,40.7457391,-73.9846188
Sushi Yasaka,restaurant,40.7795747,-73.9834601
Harvest,restaurant,40.7777871,-73.9782956
Shun Lee,restaurant,40.7728358,-73.9814252
Osteria 106,restaurant,40.7989278,-73.9616882
Le Périgord,restaurant,40.7550295,-73.9647301
Treadwell Park,restaurant,40.7614636,-73.9608923
El Mitote,restaurant,40.775834,-73.9801978
Brasserie Ruhlman,restaurant,40.7591895,-73.9781127
Absolute Greek (Food Truck),restaurant,40.703713,-74.0087506
India Palace,restaurant,40.7614174,-73.9601599
Cucina Bene Pizza,restaurant,40.7060236,-74.0102403
Tal Bagels,cafe,40.7777126,-73.9570936
Heidelberg Restaurant,restaurant,40.7774628,-73.9518046
Nara Sushi,restaurant,40.7037772,-74.010399
Toloache,restaurant,40.7764768,-73.9566862
The Simone,restaurant,40.7768188,-73.9569853
Mother's Ruin,bar,40.7213363,-73.9950075
L'Osteria,restaurant,40.7771504,-73.9571264
Tandoor Oven,restaurant,40.7770648,-73.9556075
Roti,restaurant,40.7065252,-74.0071489
Tanto Dulce Cafe,cafe,40.8233712,-73.9523695
Geisha Sushi,restaurant,40.8240742,-73.9518105
Starbucks,cafe,40.7559373,-73.9234715
Seoul Garden,restaurant,40.7477981,-73.9872728
Blue Dog,cafe,40.7646902,-73.9796633
Little Italy Pizza,restaurant,40.7918929,-73.9734655
SIMÒ PIZZA,restaurant,40.7331382,-73.9932569
Blossom,restaurant,40.7332225,-73.9936043
Reservoir,bar,40.7331707,-73.9936418
Hamido Seafood,restaurant,40.77507,-73.9094624
HinoMaru Ramen,restaurant,40.7748923,-73.9091985
Knickerbocker Bar & Grill,restaurant,40.7319768,-73.9942396
Mamoun's Falafel,restaurant,40.7302366,-74.0004281
Caffe Reggio,cafe,40.730322,-74.0003624
Andrews NYC Diner,restaurant,40.7516741,-73.9898634
fresh&co,restaurant,40.7484876,-73.9922019
Distinguished Wakamba Lounge,bar,40.7543853,-73.9921719
Baraka Buffet,restaurant,40.8168869,-73.9460483
Easy Corner,restaurant,40.8150396,-73.9407349
B&S Coffe Shop,cafe,40.7596628,-73.9366128
Tony's,restaurant,40.7643725,-73.9642919
Sami's Kabab House,restaurant,40.7583125,-73.9331125
Unknown,restaurant,40.7596244,-73.9365391
Sam Lee Kitchen,restaurant,40.7596473,-73.9365835
Applebee's,restaurant,40.7555706,-73.9226603
Unos,restaurant,40.7556895,-73.92295
Ecuadorian Restaurant II,restaurant,40.7552407,-73.9271915
Flor de Sol,restaurant,40.7539108,-73.9237443
Bar Pitti,restaurant,40.7291334,-74.0021646
Birdland Jazz Club,bar,40.7590063,-73.9896838
Z Best pizza,restaurant,40.7633685,-73.9967152
Fanelli Cafe,restaurant,40.7246074,-73.9987503
Galaxy Diner,restaurant,40.7611474,-73.9909011
Hatsuhana,restaurant,40.7568939,-73.9769041
Joe Allen,restaurant,40.7601328,-73.9890604
The Brazen Tavern,restaurant,40.7594293,-73.9912351
Unknown,restaurant,40.729906,-74.001229
Veronica's Bar,bar,40.7552627,-73.9272533
Horus Café,cafe,40.727887,-73.982007
Blank cafe,cafe,40.7109207,-73.9678242
Patrizia's,restaurant,40.7108771,-73.9674321
Bluestone Lane Coffee,cafe,40.7531885,-73.9797511
Ippudo,restaurant,40.7309292,-73.990263
Bartolino's Italian Restaurant,restaurant,40.760701,-73.9223507
Fresh Bowl & Go,restaurant,40.7606408,-73.9222264
Las Margaritas,restaurant,40.7594141,-73.9195925
Ruta Oaxaca,restaurant,40.7605007,-73.9219258
Bai Sushi,restaurant,40.7597104,-73.920246
Madam Marie's,bar,40.7603284,-73.9215565
Russian Samovar Restaurant and Piano Bar,restaurant,40.7631875,-73.9847037
Little Rebel,bar,40.7320364,-73.9854459
Favela Cubana,restaurant,40.7284192,-73.9981377
Zinc,bar,40.7297301,-73.998949
La Colombe Coffee Roasters,cafe,40.7280641,-73.9932516
Toloache,restaurant,40.728719,-73.999578
East Village Pizza,restaurant,40.7281808,-73.9851024
Corbet & Conley,cafe,40.7354601,-73.9861323
Jadis Wine Bar,restaurant,40.7209937,-73.9910102
El Mariachi,restaurant,40.7611211,-73.9232737
Bill's Bar & Burger,restaurant,40.7593743,-73.9775501
Big Daddy's Diner,restaurant,40.7379106,-73.987753
Grimaldi's Pizza,restaurant,40.741183,-73.9937782
T & J Jamaican Flava,restaurant,40.7872731,-73.9517102
The District Bar & Restaurant,restaurant,40.7839008,-73.950022
Joselito Bar,restaurant,40.724159,-73.9759768
Le Pain Quotidien,cafe,40.7542147,-73.9840492
Balthazar,restaurant,40.7226578,-73.9981644
Blue Ribbon,restaurant,40.7261431,-74.0025063
Lil' Frankies,restaurant,40.7235847,-73.9884552
The Dutch,restaurant,40.7265551,-74.0021692
The Grey Dog,restaurant,40.7229657,-73.99576
Slate,bar,40.7412384,-73.9932261
Wan Wan,restaurant,40.7217467,-73.9964556
Café Habana,restaurant,40.7228449,-73.9942284
Arthur & Sons,restaurant,40.7493521,-73.9767192
POD 39 Rooftop,bar,40.7493147,-73.9765665
Burger & Lobster,restaurant,40.7400891,-73.993461
Phoenix Garden,restaurant,40.7487201,-73.9738553
Saints and Sinners,restaurant,40.7456627,-73.9045526
Chan's Kitchen,restaurant,40.8557131,-73.9333898
La Cabana Salvadorena,restaurant,40.8542688,-73.9334615
Taszo Espresso Bar,cafe,40.8345127,-73.945255
La Libertad,restaurant,40.8334187,-73.9450216
Caffe Bene,cafe,40.8346192,-73.9452659
Coral Diner,restaurant,40.8348921,-73.9446221
Bill's Bar & Burger,restaurant,40.7402703,-74.0056248
7 Old Fulton,restaurant,40.7029414,-73.9938932
Stage Door Deli,restaurant,40.7120307,-74.0097553
Uptown Veg,restaurant,40.8055163,-73.9405433
Poke Burrito,restaurant,40.7646147,-73.9161867
Kyuramen,restaurant,40.7329227,-73.9867234
ViVi Bubble Tea,cafe,40.7326688,-73.986116
The Winslow,restaurant,40.7326739,-73.9852909
Coyote Ugly Saloon,bar,40.7328438,-73.9857034
Beauty Bar,bar,40.732876,-73.9857799
Yaki Sushi,restaurant,40.7329802,-73.9860274
Starbucks,cafe,40.7337952,-73.9865529
For U,restaurant,40.7341491,-73.9862974
Cupsoul,cafe,40.7344416,-73.9860982
Kati,restaurant,40.7316957,-73.9829911
Akina Sushi,restaurant,40.7306979,-73.9814385
Nowhere,bar,40.7318045,-73.9840953
Sotto 13,restaurant,40.7372924,-73.9991162
Los Papi's,restaurant,40.7021022,-73.9845254
Croxley's Abbey,restaurant,40.7159838,-73.9649064
Starbucks,cafe,40.7530185,-73.9772838
St. George Tavern,restaurant,40.7084159,-74.0142036
The Cauldron,restaurant,40.7043498,-74.0104603
Meyers Bageri,cafe,40.7143881,-73.95913
Petite Maman,cafe,40.7428227,-73.9355534
Miso Sushi,restaurant,40.7027939,-73.9908031
Leonetta,restaurant,40.7445472,-73.9808994
Takahachi,restaurant,40.7165871,-74.0079257
Harry's Italian,restaurant,40.7075376,-74.0068533
Emmy Squared,restaurant,40.771011,-73.9874576
Bagel Market,cafe,40.7693396,-73.9886262
Justino's Pizza,restaurant,40.7695822,-73.9884521
Halal,restaurant,40.7699473,-73.9881217
Red Cork,bar,40.767821,-73.9836723
The Jin,restaurant,40.7685706,-73.9887358
Beijing,restaurant,40.7686619,-73.9886693
1 2 3 Burger Shot Beer,bar,40.7648448,-73.9914632
Starbucks,cafe,40.7711856,-73.9568688
Sip + Co.,cafe,40.764814,-73.9759888
FIKA 7th Avenue,cafe,40.7417954,-73.9970742
FIKA Grand Central,cafe,40.7510046,-73.9765387
FIKA Tribeca & Chocolate Factory,cafe,40.723711,-74.0104259
FIKA 9th Avenue,cafe,40.7458278,-74.0015707
Blank Street Coffee,cafe,40.7447183,-73.9790898
Omakase 33,restaurant,40.7454859,-73.9793446
Le Parisien,restaurant,40.7454071,-73.9791565
Cask,restaurant,40.745353,-73.9790274
Phoshime,restaurant,40.7453806,-73.9790932
Matto Espresso,cafe,40.7450755,-73.9789117
2nd Ave Deli,restaurant,40.7451818,-73.9791899
Mighty Oak Roasters,cafe,40.7735017,-73.9168591
Bagelsmith,cafe,40.7139547,-73.9492036
Northern Bell,bar,40.7139985,-73.9485715
Pomp & Circumstance,restaurant,40.7142599,-73.9495378
Fortunato Brothers,cafe,40.7137679,-73.9461019
Cheers Thai,restaurant,40.7139261,-73.9499959
Pio Pio,restaurant,40.7453457,-73.9776302
Nom Nam,restaurant,40.7453273,-73.9775865
Babylon,restaurant,40.7454032,-73.9777675
Shokudo,restaurant,40.7460811,-73.9794459
Starbucks,cafe,40.7829394,-74.0070787
Lusso's,restaurant,40.782128,-74.0059781
Son Cubano,restaurant,40.7812997,-74.0055049
Elite Food Bar,restaurant,40.7531876,-73.9681205
Parisi Bakery,restaurant,40.7621666,-73.9254791
Three E- Taste of Thai,restaurant,40.7604886,-73.9225318
Astoria Bier and Cheese,bar,40.7605169,-73.922588
Sac's,restaurant,40.7565846,-73.9247804
Poco,restaurant,40.722528,-73.9828993
Carnitas Ramirez,restaurant,40.7224776,-73.982765
Sunday Morning,cafe,40.7224756,-73.9829662
Maretta,restaurant,40.7223864,-73.9830235
Kolkota Chai Company,cafe,40.7229149,-73.9832351
d.b.a.,bar,40.7243345,-73.9880064
Southwest Porch,cafe,40.7536535,-73.984378
La Loteria,restaurant,40.7307928,-74.004204
Meskerem,restaurant,40.7299814,-74.0003769
District Tap House,bar,40.7540893,-73.9904351
Tikka Indian Grill,restaurant,40.714407,-73.9607584
Qi Thai Grill,restaurant,40.7186299,-73.9562472
The Bean,cafe,40.7200547,-73.9551628
The Garret Coctelería,bar,40.7196519,-73.9950239
Anjappar,restaurant,40.7425648,-73.9827028
Taste from Everest,restaurant,40.7422289,-73.9829503
Bhatti,restaurant,40.7421807,-73.9829817
Pappali,restaurant,40.7423183,-73.9833132
California Pizza Kitchen,restaurant,40.7445423,-73.9834869
Shih Lee's Chinese Eastery,restaurant,40.751555,-73.970062
Chelsea Bagel,cafe,40.7503257,-73.9716056
Yoonkao Thai,restaurant,40.7450461,-73.9759245
Baby Bo's Cantina,restaurant,40.7450939,-73.9758895
Pio Pio,restaurant,40.7605928,-73.9945435
Vatan,restaurant,40.742351,-73.9803456
John's Coffee Shop,restaurant,40.7511092,-73.9715209
Sushi Time,restaurant,40.7510584,-73.9715451
Luke's Lobster,restaurant,40.7513492,-73.973221
EONS Greek Food for Life,restaurant,40.7452392,-73.9757831
Mezze Mazi,restaurant,40.7436493,-73.9793997
Vin Sur Vingt,bar,40.7439497,-73.9887933
Nous Espresso,cafe,40.807525,-73.9608785
Lallisse,restaurant,40.7439118,-73.9813418
Pershing Square,restaurant,40.7519669,-73.9777869
Comodo,restaurant,40.7395891,-73.9844966
Frank Ottomanelli's,cafe,40.7419355,-73.9608611
La Catrinas,restaurant,40.761437,-73.924556
Seek Coffee,cafe,40.7600363,-73.9205039
Break,bar,40.761392,-73.924468
Agnanti Café,cafe,40.780846,-73.917133
Our Coffee Shop,cafe,40.754429,-73.933859
Boishaki Restaurant,restaurant,40.757024,-73.93099
Beija-flor,restaurant,40.754568,-73.933774
DK Pub,restaurant,40.753669,-73.934503
Hellgate on the Park,bar,40.78094,-73.917284
Astoria Family Pizza,restaurant,40.780773,-73.917031
Mikos Souvlaki,restaurant,40.780672,-73.916871
Sugar Factory,restaurant,40.739266,-74.006605
Bagatelle,restaurant,40.7397042,-74.0060257
Gansevoort Market,restaurant,40.73927,-74.006776
Grounded,cafe,40.738035,-74.003421
Café Minerva,cafe,40.737043,-74.003887
Terra Blues,bar,40.728362,-73.999283
Up and Up,bar,40.72975,-74.000583
Saigon Shack,restaurant,40.729691,-74.000637
The Red Lion,bar,40.7284605,-73.9994965
Wicked Willy's,bar,40.728375,-73.999318
First Stop Bar & Grill,restaurant,40.7587851,-73.9183096
LIC Corner Café,cafe,40.746726,-73.947598
Sweetleaf,cafe,40.743271,-73.95158
Bierocracy,restaurant,40.743982,-73.950228
Peking Express,restaurant,40.725883,-73.942793
The Buttery Bar,bar,40.723132,-73.944627
Michael's Café & Bar,bar,40.754423,-73.935709
Manetta's Ristorante,restaurant,40.7427545,-73.9518864
JJ's Asian Fusion,restaurant,40.762084,-73.91835
Café Aliada,restaurant,40.7625339,-73.9262068
Keenan's bar,bar,40.87915,-73.904435
Bodhi,restaurant,40.716357,-73.9991738
Starbucks,cafe,40.7370022,-73.9896034
Joe Coffee Company,cafe,40.7467841,-74.0016172
Bluestone Lane,cafe,40.7485056,-74.0087396
Baar Baar,restaurant,40.7244268,-73.9915125
UN Visitors Café,cafe,40.7502191,-73.967463
Corner bistro,bar,40.7380383,-74.0037627
Variety Cafe,restaurant,40.7073841,-74.012574
Mazu,restaurant,40.7452765,-73.9782259
Eleven Madison Park,restaurant,40.7415982,-73.9871904
Le Bernardin,restaurant,40.7613945,-73.981691
Masa,restaurant,40.7685324,-73.9827663
Per Se,restaurant,40.7682549,-73.9828519
Mari Vanna,restaurant,40.7387966,-73.9885656
Starbucks,cafe,40.712179,-74.008181
Le Pain Quotidien,cafe,40.7658131,-73.9653728
Chloe,restaurant,40.7292022,-74.001033
Grand Canyon,restaurant,40.7461269,-73.9780608
Aunt Bernie's,restaurant,40.7459791,-73.9777094
Jazz Standard,restaurant,40.7422938,-73.983837
Banter,cafe,40.7437478,-73.9790582
Coppola's,restaurant,40.7415974,-73.9813869
Turkish Kitchen,restaurant,40.7418372,-73.9812232
Slick Willy,restaurant,40.7283287,-73.9492788
Connie O's Pub,bar,40.7265415,-73.9480403
Starbucks,cafe,40.7435815,-73.9920821
The Corner Cafe,cafe,40.7435359,-73.9925708
Maysville,restaurant,40.7441556,-73.9895824
Toshi's Penthouse,bar,40.7440098,-73.9891964
Osteria Laguna,restaurant,40.7506394,-73.9737151
Starbucks,cafe,40.7498951,-73.972877
Think Coffee,cafe,40.7446682,-73.98756
Ben & Jack's Steakhouse,restaurant,40.7448447,-73.9869413
Milleseme,restaurant,40.744603,-73.9854712
Seven grams,cafe,40.7439872,-73.9858906
Fresh & Co,restaurant,40.7439569,-73.9833596
Black Star Bakery & Cafe,cafe,40.7172343,-73.9564033
Unknown,restaurant,40.7535732,-73.9734874
Curry and Tandoor,restaurant,40.7536128,-73.9735973
Sparks Steak House,restaurant,40.752923,-73.9719424
Sushiden,restaurant,40.7575093,-73.9764528
Sushiden,restaurant,40.7600927,-73.9825066
Miss Lily’s,restaurant,40.7260148,-73.9837501
Gato,restaurant,40.7255749,-73.9951521
The Grey Dog,restaurant,40.7406022,-74.0006577
Gemini Diner,restaurant,40.7454088,-73.975659
At nine Restaurant & Bar,restaurant,40.7587421,-73.9921724
Pomodoro Italian Restaurant,restaurant,40.7562731,-73.993975
Trattoria Casa Di Isacco,restaurant,40.7568531,-73.9935485
Chuck E. Cheese,restaurant,40.7529557,-73.914645
New Grand Buffet,restaurant,40.7522748,-73.9148012
The Four Horsemen,bar,40.7130756,-73.9572969
Gotan,cafe,40.719225,-74.0066966
LIC Beer Project,restaurant,40.7548039,-73.9392521
Valhalla,bar,40.765979,-73.9873999
Morandi,restaurant,40.7353587,-74.0014906
The Waverly Inn,restaurant,40.7369557,-74.002226
Cafe Cluny,restaurant,40.7374393,-74.0039645
Blossom- Chelsea,restaurant,40.7454821,-74.0022829
Patiala Indian Grill,restaurant,40.753427,-73.9959744
Bagelmania,cafe,40.7570864,-73.9052234
Il Punto Ristorante,restaurant,40.7560797,-73.9945667
viva torro,bar,40.717789,-73.9592305
Beyond Sushi,restaurant,40.7633124,-73.9772025
Barcade,bar,40.7443263,-73.9944542
Bocca di Bacco,restaurant,40.7446167,-74.0029356
Bleecker Street Pizza,restaurant,40.7321893,-74.0034001
Troost,bar,40.7334503,-73.9549611
Agra Taj Mahal,restaurant,40.7333423,-73.9549468
Esme,restaurant,40.7332005,-73.9549232
Starbucks,cafe,40.8233265,-73.9426474
One-eyed Taco Man,restaurant,40.7022745,-73.9199018
King of Falafel & Shawarma,restaurant,40.7621919,-73.9255499
Sanfords,restaurant,40.7622318,-73.9256493
Lots O Bagels (LOB),cafe,40.7623369,-73.9258716
KGB Bar,bar,40.7265891,-73.9898025
The Sabieng Thai,restaurant,40.7254779,-73.9870799
Risotteria Melotti,restaurant,40.7266246,-73.9883365
Hong Kong Noodle Sariku Sushi,restaurant,40.7443652,-73.9813808
Cookshop,restaurant,40.7457199,-74.0054281
Cookshop,cafe,40.7457175,-74.0054589
Bareburger,restaurant,40.7671718,-73.9835181
Rustic Table ,cafe,40.7596945,-73.9958873
Le Pain Quotidien,cafe,40.7879358,-73.9534358
Aroy Dee Thai Kitchen,restaurant,40.7097774,-74.0089148
The Modern - The Bar Room,restaurant,40.7610807,-73.9770877
Attaboy,bar,40.7188823,-73.9913742
Pulqueria,restaurant,40.7144253,-73.9981968
Mulberry Project,bar,40.719067,-73.9976412
Après-Ski Fondue Chalet at Café Select,bar,40.7218093,-73.9979174
2nd Floor on Clinton,bar,40.7194207,-73.985079
The Back Room,bar,40.7187356,-73.9869338
Ferns,restaurant,40.7288511,-73.9841239
Please Don't Tell,bar,40.7271211,-73.983769
Blind Barber,bar,40.7271537,-73.9801374
Death & Company,bar,40.7259358,-73.9846566
Late Night Ramen at Takashi,restaurant,40.7314115,-74.0064867
Streecha Ukrainian Kitchen,restaurant,40.7284522,-73.9889619
Gaonnuri,restaurant,40.7478213,-73.9878356
Employees Only,bar,40.7334339,-74.0060767
ABA Turkish Restaurant,restaurant,40.7674386,-73.9839741
Rosemary's,restaurant,40.734788,-73.9998597
All'Antico Vinaio,restaurant,40.7295949,-73.9996291
Tacombi,restaurant,40.7239825,-73.9937554
Bluestone Lane,cafe,40.7358239,-74.0008231
Hudson Cafe,cafe,40.73833,-74.0053849
MUD,cafe,40.7290442,-73.9866462
Two Boots Pizza,restaurant,40.7599556,-73.9917522
The Butcher Daughter,restaurant,40.7207158,-73.9947851
Sushi of Gari,restaurant,40.7606902,-73.9895916
Mollyos,restaurant,40.7592099,-73.9926165
Pure Thai Cookhouse,restaurant,40.7642433,-73.9881105
Ippudo,restaurant,40.763547,-73.9865301
Radegast German Beer Garden,restaurant,40.7167708,-73.9615252
Miss Lily's (Soho),restaurant,40.7279837,-74.001356
Lydia's,bar,40.7233979,-73.9880093
Take31,restaurant,40.7462218,-73.9848538
Her Name is Han,restaurant,40.7461934,-73.9847787
Marisco Centro,restaurant,40.8519185,-73.932054
Surf Bar,restaurant,40.7177263,-73.9587317
Duff's,bar,40.7088559,-73.9578638
Home Sweet Harlem,restaurant,40.8193775,-73.9522582
Unione Restaurant,restaurant,40.8292567,-73.947944
Spice Market,restaurant,40.7404996,-74.006007
Blackstar Coffee,cafe,40.7433724,-73.9580969
Peking Duck House,restaurant,40.7146382,-73.9985571
Piccola Strada,restaurant,40.7266286,-73.9902161
Lucy’s,restaurant,40.7188932,-73.9589758
El Kucho,restaurant,40.7007776,-73.9254602
Brandy Library,bar,40.7199472,-74.007213
Walker's,restaurant,40.7197094,-74.0070516
Kung Fu Little Steamed Buns,restaurant,40.7616147,-73.9868436
Kafana,restaurant,40.7243534,-73.9784734
Urban Space ,restaurant,40.7537677,-73.9779905
Cho Dang Gol,restaurant,40.7501714,-73.9863439
Cafe China,restaurant,40.7515794,-73.9858142
Roey's,restaurant,40.735985,-74.0009044
Creperie,restaurant,40.7295942,-74.0006325
Olive Tree Cafe,bar,40.7301084,-74.0005257
Noisette Pastry Shop,cafe,40.7684031,-73.91111
Aden (Yemeni),restaurant,40.7682288,-73.9117779
AbuQir Seafood,restaurant,40.7684749,-73.9110614
Sabry's,restaurant,40.7683278,-73.911171
High Street on Hudson,cafe,40.7388422,-74.0056803
Sweet Corner Bakeshop,cafe,40.7345574,-74.0063447
Mr. Taka Ramen,restaurant,40.721278,-73.9890275
Momofuku Noodle Bar,restaurant,40.7291861,-73.9843786
The Elk,cafe,40.7341718,-74.0074226
Carve Café & Pizza,cafe,40.7593488,-73.9885067
230 Fifth,bar,40.7439412,-73.988134
Punda's Tibetan,restaurant,40.7419873,-73.9252095
BEA,restaurant,40.7593617,-73.9924919
Gran Torino,restaurant,40.7183923,-73.9588733
Old Rabbit Club,bar,40.7299594,-74.0003929
White Oak Tavern,bar,40.7303749,-73.9946392
Westville East,restaurant,40.7284125,-73.9820074
Benito One,restaurant,40.7199982,-73.9969021
Le Chéile,restaurant,40.8514544,-73.9400045
Kobrick Coffee,cafe,40.7403739,-74.0055542
Rossopomodoro,restaurant,40.7384326,-74.0020328
Ramini espresso bar,cafe,40.7552587,-73.9945988
Sylvia's Restaurant,restaurant,40.8086285,-73.9445189
Spice Simphony,restaurant,40.7447024,-73.9811337
Bella Napoli,restaurant,40.7450974,-73.9947013
Sartiano’s,restaurant,40.7248056,-73.998682
Haven Rooftop Bar,bar,40.7583844,-73.9832932
Sagaponack Bar & Grill,restaurant,40.7410206,-73.9907082
Matto Espresso,cafe,40.7515474,-73.9705865
Ningbo Cafe,restaurant,40.7080812,-74.0182068
Jane,restaurant,40.7273302,-74.000275
Wolfgang's Steakhouse,restaurant,40.7555129,-73.9780207
Habanero Cafe Mexican,restaurant,40.7005904,-73.9440052
Blue Hill,restaurant,40.7320396,-73.9995703
Franchia,restaurant,40.7475456,-73.9813305
BaoDega,restaurant,40.7401241,-73.9917722
Double Zero,restaurant,40.7261117,-73.9897202
Tampico,bar,40.7203391,-73.993321
Gallaghers Steakhouse,restaurant,40.7628531,-73.9838317
Gigino at Wagner Park,restaurant,40.7050077,-74.0181898
VLife NYC,restaurant,40.7480788,-73.9929491
Sons of Essex,restaurant,40.7202021,-73.9875286
Welcome to the Johnsons,bar,40.7196706,-73.9873004
Le Botaniste,restaurant,40.7650017,-73.9659528
Nom Wah Tea Parlor,restaurant,40.7144593,-73.9981968
Tipsy Shanghai,restaurant,40.7161628,-73.9979465
ZLS BBQ,restaurant,40.7385294,-73.9820254
International Wings Factory,restaurant,40.7802569,-73.94668
Dirt Candy,restaurant,40.7178785,-73.9907886
Tompkins Square Bagels,cafe,40.7281762,-73.9821791
Murray's Bagels,cafe,40.7363315,-73.9971668
Bocca Di Bacco,restaurant,40.766105,-73.9866537
Tasty Deli,restaurant,40.841789,-73.9390089
Piora,restaurant,40.730625,-74.0065313
Maya Mezcal,bar,40.7271358,-73.9881641
Arts and Crafts Beer Parlor,bar,40.7327089,-73.9978138
The Garret,bar,40.7323251,-74.0038428
Arthur's Tavern,bar,40.7331992,-74.0034508
Westville Chelsea,restaurant,40.7418162,-74.0000228
Rubirosa,restaurant,40.7227225,-73.9961142
Mesa Azteca,restaurant,40.7050765,-73.9201938
Berimbau do Brasil,restaurant,40.7300608,-74.0036699
Point Brazil Restaurant,restaurant,40.7617049,-73.9177187
The Little Owl,restaurant,40.7322791,-74.0052939
Emporium Brasil Restaurant,restaurant,40.7565246,-73.9798908
Rice N Beans,restaurant,40.763523,-73.98853
Rio Grande Churrascaria,restaurant,40.7533528,-73.9344179
Pomodoro Rosso,restaurant,40.7763934,-73.9793251
Arias Hell's Kitchen,restaurant,40.764055,-73.9880983
10 Below Ice Cream,cafe,40.7137511,-73.9985135
Summers,restaurant,40.7116327,-73.961939
Freehold,cafe,40.7136847,-73.9657829
Bia,restaurant,40.7119842,-73.9678497
Clem's,bar,40.7132509,-73.9585549
Ro's Diner,restaurant,40.7084618,-73.9408912
Avant Garden,restaurant,40.7261205,-73.983986
Brooklyn Diner,restaurant,40.7565134,-73.9857687
Red Peony,restaurant,40.7627204,-73.9759478
Depanneur,cafe,40.7174195,-73.962872
Humboldt & Jackson,restaurant,40.7169346,-73.9429324
Shanti Shack,cafe,40.7171428,-73.962413
Caravan of Dreams,restaurant,40.7263332,-73.985734
Bunk Sandwiches,restaurant,40.712665,-73.9607387
High Lúa,restaurant,40.7125576,-73.960413
Streets BK,restaurant,40.7106951,-73.9660366
Fossetta,restaurant,40.7224046,-73.9885699
terroir at the porch,bar,40.7429238,-74.0075471
Cosmic Diner,restaurant,40.7637454,-73.9847984
The Cock,bar,40.7271491,-73.9889759
Panca,restaurant,40.7328213,-74.0034716
Cafe el Puente,restaurant,40.7105003,-73.9588041
China Moon,restaurant,40.756458,-73.9777303
Jekyll and Hyde Club,restaurant,40.7327694,-74.0030897
Jane Motorcycles,cafe,40.7125186,-73.9660797
The Woods,bar,40.7129071,-73.9663175
Wolfgang's Steakhouse,restaurant,40.7211681,-74.0097607
Angelo Bellini,restaurant,40.7571634,-73.9684577
Frisson Espresso,cafe,40.7608908,-73.9889333
Devoción,cafe,40.7159615,-73.9647675
Horses and Divorces,bar,40.7140953,-73.961424
Quinoa Kitchen,restaurant,40.7140015,-73.9614888
Pig Heaven,restaurant,40.7753842,-73.9567313
Hillstone,restaurant,40.7580445,-73.9699967
Macondo,restaurant,40.7228717,-73.9891827
Island Burger and Shakes,restaurant,40.7643365,-73.9880327
Serendipity 3,restaurant,40.7618022,-73.9649381
Serendipity 3,restaurant,40.7600052,-73.9665174
Beetle House NYC,restaurant,40.72708,-73.9880314
Giorgio's of Gramercy,restaurant,40.7396065,-73.9886459
Trattoria Pesce Pasta,restaurant,40.7311855,-74.0031019
El Cortez,restaurant,40.7070137,-73.9330978
The Commodore,restaurant,40.7139513,-73.9558034
The View Restaurant & Lounge,restaurant,40.758744,-73.986415
Da Marcella,restaurant,40.7277469,-74.0020266
Le Pain Quotidien,cafe,40.7532402,-73.9845838
Eagle Bar,bar,40.7517058,-74.0042924
Jazba,restaurant,40.7316574,-73.9856935
Momofuku Nishi,restaurant,40.7443392,-73.9987769
TGI Fridays,restaurant,40.7065633,-74.0129228
Starbucks,cafe,40.7636783,-73.9823708
Black Tap,restaurant,40.7238705,-74.004215
Westlight,bar,40.7223271,-73.9567564
Porteño,restaurant,40.7504599,-74.0024185
Joe Junior,restaurant,40.734635,-73.9859521
Toribro Ramen,restaurant,40.7644404,-73.9875805
Lincoln Ristorante,restaurant,40.7733333,-73.983552
Rooftop Bar,bar,40.7563569,-73.9749477
Rooftop Bar,bar,40.7392821,-73.9872624
Covina,restaurant,40.7423513,-73.9833892
Gallow Green Rooftop Bar,bar,40.7507722,-74.0040792
Pizza Fresca,restaurant,40.7389487,-73.9889529
Taqueria Sofia,restaurant,40.7002919,-73.9256805
bb.q Chicken,restaurant,40.7415576,-73.9809256
Blue Ribbon Brassiere,restaurant,40.725453,-74.0030128
Follia,restaurant,40.7350082,-73.9857014
Obica Mozzarella Bar,restaurant,40.7400479,-73.9893474
Eleni's Divine Greek Cuisine,restaurant,40.7365634,-73.9850368
P.F. Chang's,restaurant,40.7343278,-73.9921829
Minetta Tavern Restaurant,restaurant,40.7299655,-74.0006297
Arturo's Coal Oven Pizza,restaurant,40.7273991,-74.0003974
caffe wha,bar,40.730082,-74.0007434
Industry,bar,40.7643224,-73.9873646
Starbucks,cafe,40.7480793,-73.9892846
Saravanaa Bhavan,restaurant,40.7414379,-73.9831543
Seven Grams Caffe,cafe,40.7455323,-73.9943777
Ted's Montana Grill,restaurant,40.7607731,-73.9808203
ViVi Bubble Tea,cafe,40.7363224,-73.994803
Virgil's Real BBQ,restaurant,40.7568784,-73.9853179
Yatenga French Bistro,restaurant,40.8142327,-73.9441134
Manhattanville Coffee,cafe,40.8213006,-73.9445186
Giovanni's G-Bar,restaurant,40.8194448,-73.9271344
Gyu-Kaku,restaurant,40.7591217,-73.9898914
Gyu-Kaku,restaurant,40.7282161,-73.991431
Lex Restaurant,restaurant,40.7825319,-73.953693
Rivington Pizza,restaurant,40.7190395,-73.9846805
Porter House Bar and Grill,restaurant,40.768715,-73.9824828
L & W Oyster Company,restaurant,40.7450031,-73.9873381
ilili,restaurant,40.7443707,-73.98779
Jadis,bar,40.7204555,-73.9893332
Chinese Club,restaurant,40.7139736,-73.9603029
House of Small Wonder,restaurant,40.7189283,-73.960798
pho sure,restaurant,40.7330843,-74.0055808
La Sirène,restaurant,40.7244709,-74.0057117
Fresh Salt,restaurant,40.7070752,-74.0024625
ACQUA,restaurant,40.7082305,-74.0016978
The Red Cat,restaurant,40.7480925,-74.0041031
Boqueria Soho,restaurant,40.7248202,-74.0022169
The Fulton,restaurant,40.7056412,-74.0018965
Hakka Cuisine,restaurant,40.7139703,-73.9968991
La Bonne Soupe,restaurant,40.7624058,-73.9769664
Great NY Noodletown,restaurant,40.7149725,-73.9970927
EJ's Luncheonette,restaurant,40.7704393,-73.9597626
Café Fiorello,restaurant,40.7717565,-73.9818595
Mr Purple,bar,40.7218111,-73.9882321
Corkbuzz,restaurant,40.7350302,-73.993152
Bluestone Lane,cafe,40.783839,-73.9584235
Utopia Diner,restaurant,40.7788149,-73.981253
Pick a Bagel,cafe,40.7643286,-73.984836
Maui Onion,restaurant,40.7444333,-73.9902995
Bean&Bean Coffee,cafe,40.7469873,-73.9969959
Sushi W,restaurant,40.7983705,-73.9694134
Bagelsmith,cafe,40.7175502,-73.9578621
La Gualacena,restaurant,40.7020502,-73.915897
The Storehouse,bar,40.7428233,-73.9921754
Ariari,restaurant,40.7272468,-73.98579
Qi Bangkok Eatery,restaurant,40.7577821,-73.9896877
Starbucks,cafe,40.7622096,-73.9874605
IchiUmi,restaurant,40.7467647,-73.9848226
Brooks Brothers - Red Fleece Cafe,cafe,40.7391221,-73.9899657
Woorijip,restaurant,40.7474399,-73.9864528
Kisa,restaurant,40.722836,-73.9889877
Peasant,restaurant,40.721733,-73.9944139
Bryant Park Grill,restaurant,40.7532049,-73.9829323
INDAY,restaurant,40.7438616,-73.9894745
La Pecora Bianca,restaurant,40.7437112,-73.9892129
American Table Cafe,restaurant,40.773601,-73.9825772
ViVi Bubble Tea,cafe,40.7227486,-73.9890819
Sinigual,restaurant,40.7503349,-73.9750642
12 Corners,cafe,40.7180559,-73.997117
Don Angie,restaurant,40.7378039,-74.0019928
Beatnic,restaurant,40.7419681,-73.9929316
Unknown,bar,40.7200282,-73.987818
Hudson Malone,restaurant,40.7572639,-73.9686379
Cherry Tavern,bar,40.7257543,-73.9843812
Cafe Mogador,restaurant,40.7273469,-73.984402
Abraço,cafe,40.7273019,-73.9861875
The Smith,restaurant,40.7442427,-73.9887217
Starbucks Reserve,cafe,40.7415915,-74.0052445
Satsko,restaurant,40.7245384,-73.9802202
Blue-Park Kitchen,restaurant,40.7516202,-73.974679
Soothr,restaurant,40.7323273,-73.9873238
Hale and Hearty Soups,restaurant,40.7376427,-73.9912505
Bagel Market,cafe,40.752013,-73.975055
Nolita Pizza,restaurant,40.7209123,-73.9961959
August Gatherings,restaurant,40.7186763,-74.0012084
CAVA,restaurant,40.7522516,-73.9736217
David Burke Kitchen,restaurant,40.7227812,-74.0048748
Betony,restaurant,40.7641941,-73.9764545
Birch Coffee,cafe,40.7436151,-73.9863949
Starbucks,cafe,40.7189006,-74.0025174
Wa Jeal Sichuan Chili House,restaurant,40.7754148,-73.9532859
Menkui Teu,restaurant,40.7632437,-73.9771564
Wagamama,restaurant,40.743289,-73.9885756
Dizen Goff,restaurant,40.7421092,-74.005517
The National,restaurant,40.7565537,-73.9721358
Fiat Café,restaurant,40.7214382,-73.995646
Mulberry & Vine,restaurant,40.7452909,-73.9903934
Baita by Birreria,restaurant,40.7419337,-73.9898018
Baker Street Pub,restaurant,40.7621262,-73.9598887
Momoya,restaurant,40.7426475,-73.9964607
Socarrat Paella Bar,restaurant,40.7426481,-73.9995427
The Cabin,restaurant,40.7239695,-73.9838019
Up & Down,bar,40.7393278,-74.0018755
La Nacional,restaurant,40.7393804,-74.0012272
MatchaBar,cafe,40.740124,-74.0014925
Pierre Loti,bar,40.7401651,-74.0015899
Linwood Pizza,restaurant,40.8613057,-73.9702633
Pierre Loti,restaurant,40.7360901,-73.9874452
Junoon,restaurant,40.7431207,-73.9909146
Taboonette,restaurant,40.734646,-73.9927932
Lubian Chinese Grilled Fish,restaurant,40.7606163,-73.9908082
Joe Coffee Company,cafe,40.7290876,-73.9982833
Boba Guys,cafe,40.7206037,-73.984423
Smithfield Hall,bar,40.7447503,-73.993589
Old Town Bar,bar,40.7375383,-73.9892094
Mozzarella & Vino,restaurant,40.7619597,-73.9772624
Carve: Unique Sandwich,restaurant,40.7602363,-73.9873789
New York Luncheonette,cafe,40.7564367,-73.971716
Adyar Ananda Bhavan,restaurant,40.7497376,-73.9774652
Astoria Coffee,cafe,40.7671306,-73.9224642
Thai Market,restaurant,40.801341,-73.965277
Financier,cafe,40.7546713,-73.9745591
Fresh From Hell,restaurant,40.7607941,-73.9886943
Black Fox coffee co.,cafe,40.7064444,-74.0079647
Dianne & Elisabeth,bar,40.7615967,-73.9938286
Natsumi,restaurant,40.7617708,-73.9850779
Yuca Bar & Restaurant,restaurant,40.7262151,-73.9835939
Empellón Al pastor,bar,40.7266479,-73.9832781
Mangia Organic,cafe,40.7526386,-73.9845169
Hill and Bay,restaurant,40.7434898,-73.9771111
Egg Shop,restaurant,40.7204398,-73.9951556
